{
  "colombiaCities": [
    {
      "city": "Bogotá",
      "lat": 4.6126,
      "lng": -74.0705,
      "country": "Colombia",
      "iso2": "CO",
      "adminName": "Distrito Capital",
      "capital": "primary",
      "population": 9464000,
      "populationProper": 7963000
    },
    {
      "city": "Medellín",
      "lat": 6.2447,
      "lng": -75.5748,
      "country": "Colombia",
      "iso2": "CO",
      "adminName": "Antioquia",
      "capital": "admin",
      "population": 2529403,
      "populationProper": 2529403
    },
    {
      "city": "Cali",
      "lat": 3.44,
      "lng": -76.5197,
      "country": "Colombia",
      "iso2": "CO",
      "adminName": "Valle del Cauca",
      "capital": "admin",
      "population": 2471474,
      "populationProper": 2471474
    },
    {
      "city": "Barranquilla",
      "lat": 10.9639,
      "lng": -74.7964,
      "country": "Colombia",
      "iso2": "CO",
      "adminName": "Atlántico",
      "capital": "admin",
      "population": 1274250,
      "populationProper": 1274250
    },
    {
      "city": "Cartagena",
      "lat": 10.4236,
      "lng": -75.5253,
      "country": "Colombia",
      "iso2": "CO",
      "adminName": "Bolívar",
      "capital": "admin",
      "population": 1036412,
      "populationProper": 1036412
    },
    {
      "city": "Soacha",
      "lat": 4.5781,
      "lng": -74.2144,
      "country": "Colombia",
      "iso2": "CO",
      "adminName": "Cundinamarca",
      "capital": "minor",
      "population": 995268,
      "populationProper": 995268
    },
    {
      "city": "Palermo",
      "lat": 2.8883,
      "lng": -75.4339,
      "country": "Colombia",
      "iso2": "CO",
      "adminName": "Huila",
      "capital": "minor",
      "population": 800000,
      "populationProper": 800000
    },
    {
      "city": "Cúcuta",
      "lat": 7.9075,
      "lng": -72.5047,
      "country": "Colombia",
      "iso2": "CO",
      "adminName": "Norte de Santander",
      "capital": "admin",
      "population": 750000,
      "populationProper": 750000
    },
    {
      "city": "Soledad",
      "lat": 10.92,
      "lng": -74.77,
      "country": "Colombia",
      "iso2": "CO",
      "adminName": "Atlántico",
      "capital": "minor",
      "population": 698852,
      "populationProper": 342556
    },
    {
      "city": "Pereira",
      "lat": 4.8143,
      "lng": -75.6946,
      "country": "Colombia",
      "iso2": "CO",
      "adminName": "Risaralda",
      "capital": "admin",
      "population": 590554,
      "populationProper": 590554
    },
    {
      "city": "Bucaramanga",
      "lat": 7.1186,
      "lng": -73.1161,
      "country": "Colombia",
      "iso2": "CO",
      "adminName": "Santander",
      "capital": "admin",
      "population": 581130,
      "populationProper": 581130
    },
    {
      "city": "Valledupar",
      "lat": 10.4603,
      "lng": -73.2597,
      "country": "Colombia",
      "iso2": "CO",
      "adminName": "Cesar",
      "capital": "admin",
      "population": 544134,
      "populationProper": 544134
    },
    {
      "city": "Ibagué",
      "lat": 4.4378,
      "lng": -75.2006,
      "country": "Colombia",
      "iso2": "CO",
      "adminName": "Tolima",
      "capital": "admin",
      "population": 541101,
      "populationProper": 541101
    },
    {
      "city": "Villavicencio",
      "lat": 4.1425,
      "lng": -73.6294,
      "country": "Colombia",
      "iso2": "CO",
      "adminName": "Meta",
      "capital": "admin",
      "population": 527668,
      "populationProper": 527668
    },
    {
      "city": "Santa Marta",
      "lat": 11.2361,
      "lng": -74.2017,
      "country": "Colombia",
      "iso2": "CO",
      "adminName": "Magdalena",
      "capital": "admin",
      "population": 515556,
      "populationProper": 515556
    },
    {
      "city": "Montería",
      "lat": 8.76,
      "lng": -75.8856,
      "country": "Colombia",
      "iso2": "CO",
      "adminName": "Córdoba",
      "capital": "admin",
      "population": 505334,
      "populationProper": 505334
    },
    {
      "city": "Manizales",
      "lat": 5.0661,
      "lng": -75.4847,
      "country": "Colombia",
      "iso2": "CO",
      "adminName": "Caldas",
      "capital": "admin",
      "population": 434403,
      "populationProper": 434403
    },
    {
      "city": "Buenaventura",
      "lat": 3.8772,
      "lng": -77.0267,
      "country": "Colombia",
      "iso2": "CO",
      "adminName": "Valle del Cauca",
      "capital": "minor",
      "population": 423927,
      "populationProper": 423927
    },
    {
      "city": "Pasto",
      "lat": 1.2136,
      "lng": -77.2811,
      "country": "Colombia",
      "iso2": "CO",
      "adminName": "Nariño",
      "capital": "admin",
      "population": 382236,
      "populationProper": 360041
    },
    {
      "city": "Bello",
      "lat": 6.3319,
      "lng": -75.5581,
      "country": "Colombia",
      "iso2": "CO",
      "adminName": "Antioquia",
      "capital": "minor",
      "population": 371591,
      "populationProper": 371591
    },
    {
      "city": "Neiva",
      "lat": 2.9275,
      "lng": -75.2875,
      "country": "Colombia",
      "iso2": "CO",
      "adminName": "Huila",
      "capital": "admin",
      "population": 353033,
      "populationProper": 353033
    },
    {
      "city": "Armenia",
      "lat": 4.5389,
      "lng": -75.6725,
      "country": "Colombia",
      "iso2": "CO",
      "adminName": "Quindío",
      "capital": "admin",
      "population": 301226,
      "populationProper": 301226
    },
    {
      "city": "Popayán",
      "lat": 2.4411,
      "lng": -76.6061,
      "country": "Colombia",
      "iso2": "CO",
      "adminName": "Cauca",
      "capital": "admin",
      "population": 300837,
      "populationProper": 300837
    },
    {
      "city": "Sincelejo",
      "lat": 9.2994,
      "lng": -75.3958,
      "country": "Colombia",
      "iso2": "CO",
      "adminName": "Sucre",
      "capital": "admin",
      "population": 286716,
      "populationProper": 286716
    },
    {
      "city": "Floridablanca",
      "lat": 7.0697,
      "lng": -73.0978,
      "country": "Colombia",
      "iso2": "CO",
      "adminName": "Santander",
      "capital": "minor",
      "population": 267170,
      "populationProper": 267170
    },
    {
      "city": "Itagüí",
      "lat": 6.1726,
      "lng": -75.6096,
      "country": "Colombia",
      "iso2": "CO",
      "adminName": "Antioquia",
      "capital": "minor",
      "population": 235016,
      "populationProper": 235016
    },
    {
      "city": "Envigado",
      "lat": 6.1719,
      "lng": -75.5803,
      "country": "Colombia",
      "iso2": "CO",
      "adminName": "Antioquia",
      "capital": "minor",
      "population": 228848,
      "populationProper": 228848
    },
    {
      "city": "Tuluá",
      "lat": 4.0847,
      "lng": -76.1986,
      "country": "Colombia",
      "iso2": "CO",
      "adminName": "Valle del Cauca",
      "capital": "minor",
      "population": 219138,
      "populationProper": 219138
    },
    {
      "city": "Tumaco",
      "lat": 1.8067,
      "lng": -78.7647,
      "country": "Colombia",
      "iso2": "CO",
      "adminName": "Nariño",
      "capital": "minor",
      "population": 212692,
      "populationProper": 212692
    },
    {
      "city": "Barrancabermeja",
      "lat": 7.0675,
      "lng": -73.8472,
      "country": "Colombia",
      "iso2": "CO",
      "adminName": "Santander",
      "capital": "minor",
      "population": 210729,
      "populationProper": 210729
    },
    {
      "city": "Tunja",
      "lat": 5.5403,
      "lng": -73.3614,
      "country": "Colombia",
      "iso2": "CO",
      "adminName": "Boyacá",
      "capital": "admin",
      "population": 209263,
      "populationProper": 209263
    },
    {
      "city": "Zipaquirá",
      "lat": 5.0247,
      "lng": -74.0014,
      "country": "Colombia",
      "iso2": "CO",
      "adminName": "Cundinamarca",
      "capital": "minor",
      "population": 196409,
      "populationProper": 196409
    },
    {
      "city": "Turbo",
      "lat": 8.0931,
      "lng": -76.7283,
      "country": "Colombia",
      "iso2": "CO",
      "adminName": "Antioquia",
      "capital": "minor",
      "population": 181000,
      "populationProper": 181000
    },
    {
      "city": "Yopal",
      "lat": 5.3306,
      "lng": -72.3906,
      "country": "Colombia",
      "iso2": "CO",
      "adminName": "Casanare",
      "capital": "admin",
      "population": 179355,
      "populationProper": 179355
    },
    {
      "city": "Dosquebradas",
      "lat": 4.8361,
      "lng": -75.6761,
      "country": "Colombia",
      "iso2": "CO",
      "adminName": "Risaralda",
      "capital": "minor",
      "population": 179301,
      "populationProper": 179301
    },
    {
      "city": "Ríohacha",
      "lat": 11.5442,
      "lng": -72.9069,
      "country": "Colombia",
      "iso2": "CO",
      "adminName": "La Guajira",
      "capital": "admin",
      "population": 167865,
      "populationProper": 167865
    },
    {
      "city": "Girón",
      "lat": 7.0731,
      "lng": -73.1681,
      "country": "Colombia",
      "iso2": "CO",
      "adminName": "Santander",
      "capital": "minor",
      "population": 160403,
      "populationProper": 160403
    },
    {
      "city": "Florencia",
      "lat": 1.6142,
      "lng": -75.6117,
      "country": "Colombia",
      "iso2": "CO",
      "adminName": "Caquetá",
      "capital": "admin",
      "population": 143871,
      "populationProper": 143871
    },
    {
      "city": "Fusagasugá",
      "lat": 4.3372,
      "lng": -74.3644,
      "country": "Colombia",
      "iso2": "CO",
      "adminName": "Cundinamarca",
      "capital": "minor",
      "population": 139805,
      "populationProper": 139805
    },
    {
      "city": "Cartago",
      "lat": 4.75,
      "lng": -75.91,
      "country": "Colombia",
      "iso2": "CO",
      "adminName": "Valle del Cauca",
      "capital": "minor",
      "population": 134827,
      "populationProper": 111513
    },
    {
      "city": "Pitalito",
      "lat": 1.8539,
      "lng": -76.0514,
      "country": "Colombia",
      "iso2": "CO",
      "adminName": "Huila",
      "capital": "minor",
      "population": 133205,
      "populationProper": 133205
    },
    {
      "city": "Ciénaga",
      "lat": 11.0104,
      "lng": -74.25,
      "country": "Colombia",
      "iso2": "CO",
      "adminName": "Magdalena",
      "capital": "minor",
      "population": 131171,
      "populationProper": 88311
    },
    {
      "city": "Sogamoso",
      "lat": 5.7158,
      "lng": -72.9333,
      "country": "Colombia",
      "iso2": "CO",
      "adminName": "Boyacá",
      "capital": "minor",
      "population": 131105,
      "populationProper": 131105
    },
    {
      "city": "Quibdó",
      "lat": 5.6923,
      "lng": -76.6582,
      "country": "Colombia",
      "iso2": "CO",
      "adminName": "Chocó",
      "capital": "admin",
      "population": 130825,
      "populationProper": 130825
    },
    {
      "city": "Girardot",
      "lat": 4.3036,
      "lng": -74.8039,
      "country": "Colombia",
      "iso2": "CO",
      "adminName": "Cundinamarca",
      "capital": "minor",
      "population": 129834,
      "populationProper": 129834
    },
    {
      "city": "Duitama",
      "lat": 5.8219,
      "lng": -73.0297,
      "country": "Colombia",
      "iso2": "CO",
      "adminName": "Boyacá",
      "capital": "minor",
      "population": 126670,
      "populationProper": 126670
    },
    {
      "city": "Magangué",
      "lat": 9.2467,
      "lng": -74.7594,
      "country": "Colombia",
      "iso2": "CO",
      "adminName": "Bolívar",
      "capital": "minor",
      "population": 123906,
      "populationProper": 123906
    },
    {
      "city": "Maicao",
      "lat": 11.3778,
      "lng": -72.2414,
      "country": "Colombia",
      "iso2": "CO",
      "adminName": "La Guajira",
      "capital": "minor",
      "population": 123757,
      "populationProper": 123757
    },
    {
      "city": "Uribia",
      "lat": 11.7139,
      "lng": -72.2658,
      "country": "Colombia",
      "iso2": "CO",
      "adminName": "La Guajira",
      "capital": "minor",
      "population": 117674,
      "populationProper": 117674
    },
    {
      "city": "Piedecuesta",
      "lat": 6.9886,
      "lng": -73.0503,
      "country": "Colombia",
      "iso2": "CO",
      "adminName": "Santander",
      "capital": "minor",
      "population": 117364,
      "populationProper": 117364
    },
    {
      "city": "Facatativá",
      "lat": 4.8147,
      "lng": -74.3553,
      "country": "Colombia",
      "iso2": "CO",
      "adminName": "Cundinamarca",
      "capital": "minor",
      "population": 117133,
      "populationProper": 117133
    },
    {
      "city": "Guadalajara de Buga",
      "lat": 3.9036,
      "lng": -76.2986,
      "country": "Colombia",
      "iso2": "CO",
      "adminName": "Valle del Cauca",
      "capital": "minor",
      "population": 116893,
      "populationProper": 116893
    },
    {
      "city": "Madrid",
      "lat": 4.7306,
      "lng": -74.2639,
      "country": "Colombia",
      "iso2": "CO",
      "adminName": "Cundinamarca",
      "capital": "minor",
      "population": 112254,
      "populationProper": 112254
    },
    {
      "city": "Santander de Quilichao",
      "lat": 3.0083,
      "lng": -76.4839,
      "country": "Colombia",
      "iso2": "CO",
      "adminName": "Cauca",
      "capital": "minor",
      "population": 110535,
      "populationProper": 110535
    },
    {
      "city": "Aguachica",
      "lat": 8.3067,
      "lng": -73.6153,
      "country": "Colombia",
      "iso2": "CO",
      "adminName": "Cesar",
      "capital": "minor",
      "population": 109621,
      "populationProper": 109621
    },
    {
      "city": "Ipiales",
      "lat": 0.8289,
      "lng": -77.6406,
      "country": "Colombia",
      "iso2": "CO",
      "adminName": "Nariño",
      "capital": "minor",
      "population": 109116,
      "populationProper": 109116
    },
    {
      "city": "Chía",
      "lat": 4.8633,
      "lng": -74.0528,
      "country": "Colombia",
      "iso2": "CO",
      "adminName": "Cundinamarca",
      "capital": "minor",
      "population": 97896,
      "populationProper": 97896
    },
    {
      "city": "Jamundí",
      "lat": 3.2608,
      "lng": -76.5394,
      "country": "Colombia",
      "iso2": "CO",
      "adminName": "Valle del Cauca",
      "capital": "minor",
      "population": 96993,
      "populationProper": 96993
    },
    {
      "city": "Arauca",
      "lat": 7.0903,
      "lng": -70.7617,
      "country": "Colombia",
      "iso2": "CO",
      "adminName": "Arauca",
      "capital": "admin",
      "population": 96814,
      "populationProper": 96814
    },
    {
      "city": "Yumbo",
      "lat": 3.5778,
      "lng": -76.4944,
      "country": "Colombia",
      "iso2": "CO",
      "adminName": "Valle del Cauca",
      "capital": "minor",
      "population": 92192,
      "populationProper": 92192
    },
    {
      "city": "Mosquera",
      "lat": 4.7078,
      "lng": -74.2328,
      "country": "Colombia",
      "iso2": "CO",
      "adminName": "Cundinamarca",
      "capital": "minor",
      "population": 91282,
      "populationProper": 91282
    },
    {
      "city": "Fundación",
      "lat": 10.5172,
      "lng": -74.1922,
      "country": "Colombia",
      "iso2": "CO",
      "adminName": "Magdalena",
      "capital": "minor",
      "population": 90514,
      "populationProper": 90514
    },
    {
      "city": "Ocaña",
      "lat": 8.2461,
      "lng": -73.3553,
      "country": "Colombia",
      "iso2": "CO",
      "adminName": "Norte de Santander",
      "capital": "minor",
      "population": 90037,
      "populationProper": 90037
    },
    {
      "city": "Montelíbano",
      "lat": 7.9711,
      "lng": -75.4181,
      "country": "Colombia",
      "iso2": "CO",
      "adminName": "Córdoba",
      "capital": "minor",
      "population": 88674,
      "populationProper": 88674
    },
    {
      "city": "Chiquinquirá",
      "lat": 5.6175,
      "lng": -73.8164,
      "country": "Colombia",
      "iso2": "CO",
      "adminName": "Boyacá",
      "capital": "minor",
      "population": 85274,
      "populationProper": 85274
    },
    {
      "city": "Sabanalarga",
      "lat": 10.63,
      "lng": -74.9236,
      "country": "Colombia",
      "iso2": "CO",
      "adminName": "Atlántico",
      "capital": "minor",
      "population": 84410,
      "populationProper": 84410
    },
    {
      "city": "Chigorodó",
      "lat": 7.6697,
      "lng": -76.6814,
      "country": "Colombia",
      "iso2": "CO",
      "adminName": "Antioquia",
      "capital": "minor",
      "population": 84183,
      "populationProper": 84183
    },
    {
      "city": "Cereté",
      "lat": 8.8867,
      "lng": -75.7911,
      "country": "Colombia",
      "iso2": "CO",
      "adminName": "Córdoba",
      "capital": "minor",
      "population": 83917,
      "populationProper": 83917
    },
    {
      "city": "Caldas",
      "lat": 6.0886,
      "lng": -75.6361,
      "country": "Colombia",
      "iso2": "CO",
      "adminName": "Antioquia",
      "capital": "minor",
      "population": 81381,
      "populationProper": 81381
    },
    {
      "city": "Funza",
      "lat": 4.7175,
      "lng": -74.2094,
      "country": "Colombia",
      "iso2": "CO",
      "adminName": "Cundinamarca",
      "capital": "minor",
      "population": 80937,
      "populationProper": 80937
    },
    {
      "city": "Los Patios",
      "lat": 7.8342,
      "lng": -72.505,
      "country": "Colombia",
      "iso2": "CO",
      "adminName": "Norte de Santander",
      "capital": "minor",
      "population": 80235,
      "populationProper": 80235
    },
    {
      "city": "Tierralta",
      "lat": 8.1728,
      "lng": -76.0594,
      "country": "Colombia",
      "iso2": "CO",
      "adminName": "Córdoba",
      "capital": "minor",
      "population": 78770,
      "populationProper": 78770
    },
    {
      "city": "El Carmen de Bolívar",
      "lat": 9.7167,
      "lng": -75.1167,
      "country": "Colombia",
      "iso2": "CO",
      "adminName": "Bolívar",
      "capital": "minor",
      "population": 78729,
      "populationProper": 78729
    },
    {
      "city": "La Dorada",
      "lat": 5.4538,
      "lng": -74.6647,
      "country": "Colombia",
      "iso2": "CO",
      "adminName": "Caldas",
      "capital": "minor",
      "population": 78540,
      "populationProper": 78540
    },
    {
      "city": "Arjona",
      "lat": 10.255,
      "lng": -75.3447,
      "country": "Colombia",
      "iso2": "CO",
      "adminName": "Bolívar",
      "capital": "minor",
      "population": 78070,
      "populationProper": 78070
    },
    {
      "city": "Turbaco",
      "lat": 10.3319,
      "lng": -75.4142,
      "country": "Colombia",
      "iso2": "CO",
      "adminName": "Bolívar",
      "capital": "minor",
      "population": 76218,
      "populationProper": 76218
    },
    {
      "city": "Espinal",
      "lat": 4.1486,
      "lng": -74.8819,
      "country": "Colombia",
      "iso2": "CO",
      "adminName": "Tolima",
      "capital": "minor",
      "population": 75828,
      "populationProper": 75828
    },
    {
      "city": "Acacías",
      "lat": 3.9889,
      "lng": -73.7647,
      "country": "Colombia",
      "iso2": "CO",
      "adminName": "Meta",
      "capital": "minor",
      "population": 75252,
      "populationProper": 75252
    },
    {
      "city": "Copacabana",
      "lat": 6.3486,
      "lng": -75.5103,
      "country": "Colombia",
      "iso2": "CO",
      "adminName": "Antioquia",
      "capital": "minor",
      "population": 73574,
      "populationProper": 73574
    },
    {
      "city": "Santa Rosa de Cabal",
      "lat": 4.8672,
      "lng": -75.6211,
      "country": "Colombia",
      "iso2": "CO",
      "adminName": "Risaralda",
      "capital": "minor",
      "population": 73028,
      "populationProper": 73028
    },
    {
      "city": "San Vicente del Caguán",
      "lat": 2.1153,
      "lng": -74.77,
      "country": "Colombia",
      "iso2": "CO",
      "adminName": "Caquetá",
      "capital": "minor",
      "population": 72949,
      "populationProper": 72949
    },
    {
      "city": "San Andrés",
      "lat": 12.5847,
      "lng": -81.7006,
      "country": "Colombia",
      "iso2": "CO",
      "adminName": "San Andrés y Providencia",
      "capital": "admin",
      "population": 71946,
      "populationProper": 71946
    },
    {
      "city": "Corozal",
      "lat": 9.3169,
      "lng": -75.2933,
      "country": "Colombia",
      "iso2": "CO",
      "adminName": "Sucre",
      "capital": "minor",
      "population": 70853,
      "populationProper": 70853
    },
    {
      "city": "Villa del Rosario",
      "lat": 7.8353,
      "lng": -72.4736,
      "country": "Colombia",
      "iso2": "CO",
      "adminName": "Norte de Santander",
      "capital": "minor",
      "population": 69833,
      "populationProper": 69833
    },
    {
      "city": "Garzón",
      "lat": 2.1961,
      "lng": -75.6292,
      "country": "Colombia",
      "iso2": "CO",
      "adminName": "Huila",
      "capital": "minor",
      "population": 69823,
      "populationProper": 69823
    },
    {
      "city": "Planeta Rica",
      "lat": 8.4089,
      "lng": -75.5819,
      "country": "Colombia",
      "iso2": "CO",
      "adminName": "Córdoba",
      "capital": "minor",
      "population": 69285,
      "populationProper": 69285
    },
    {
      "city": "Necoclí",
      "lat": 8.4258,
      "lng": -76.7839,
      "country": "Colombia",
      "iso2": "CO",
      "adminName": "Antioquia",
      "capital": "minor",
      "population": 69090,
      "populationProper": 69090
    },
    {
      "city": "San José del Guaviare",
      "lat": 2.5653,
      "lng": -72.6386,
      "country": "Colombia",
      "iso2": "CO",
      "adminName": "Guaviare",
      "capital": "admin",
      "population": 68878,
      "populationProper": 68878
    },
    {
      "city": "Manaure",
      "lat": 11.775,
      "lng": -72.4444,
      "country": "Colombia",
      "iso2": "CO",
      "adminName": "La Guajira",
      "capital": "minor",
      "population": 67584,
      "populationProper": 67584
    },
    {
      "city": "Marinilla",
      "lat": 6.1744,
      "lng": -75.3389,
      "country": "Colombia",
      "iso2": "CO",
      "adminName": "Antioquia",
      "capital": "minor",
      "population": 64645,
      "populationProper": 64645
    },
    {
      "city": "Ciénaga de Oro",
      "lat": 8.875,
      "lng": -75.6211,
      "country": "Colombia",
      "iso2": "CO",
      "adminName": "Córdoba",
      "capital": "minor",
      "population": 64226,
      "populationProper": 64226
    },
    {
      "city": "Puerto Asís",
      "lat": 0.5006,
      "lng": -76.4989,
      "country": "Colombia",
      "iso2": "CO",
      "adminName": "Putumayo",
      "capital": "minor",
      "population": 63067,
      "populationProper": 63067
    },
    {
      "city": "Riosucio",
      "lat": 5.4208,
      "lng": -75.7028,
      "country": "Colombia",
      "iso2": "CO",
      "adminName": "Caldas",
      "capital": "minor",
      "population": 62296,
      "populationProper": 62296
    },
    {
      "city": "Plato",
      "lat": 9.7925,
      "lng": -74.7825,
      "country": "Colombia",
      "iso2": "CO",
      "adminName": "Magdalena",
      "capital": "minor",
      "population": 61856,
      "populationProper": 61856
    },
    {
      "city": "Carepa",
      "lat": 7.7581,
      "lng": -76.6553,
      "country": "Colombia",
      "iso2": "CO",
      "adminName": "Antioquia",
      "capital": "minor",
      "population": 61641,
      "populationProper": 61641
    },
    {
      "city": "Cajicá",
      "lat": 4.9167,
      "lng": -74.025,
      "country": "Colombia",
      "iso2": "CO",
      "adminName": "Cundinamarca",
      "capital": "minor",
      "population": 61549,
      "populationProper": 61549
    },
    {
      "city": "Villamaría",
      "lat": 5.0456,
      "lng": -75.5153,
      "country": "Colombia",
      "iso2": "CO",
      "adminName": "Caldas",
      "capital": "minor",
      "population": 60729,
      "populationProper": 60729
    },
    {
      "city": "San Marcos",
      "lat": 8.6622,
      "lng": -75.1289,
      "country": "Colombia",
      "iso2": "CO",
      "adminName": "Sucre",
      "capital": "minor",
      "population": 59976,
      "populationProper": 59976
    },
    {
      "city": "Girardota",
      "lat": 6.3769,
      "lng": -75.4461,
      "country": "Colombia",
      "iso2": "CO",
      "adminName": "Antioquia",
      "capital": "minor",
      "population": 59319,
      "populationProper": 59319
    },
    {
      "city": "Florida",
      "lat": 3.3217,
      "lng": -76.2347,
      "country": "Colombia",
      "iso2": "CO",
      "adminName": "Valle del Cauca",
      "capital": "minor",
      "population": 58988,
      "populationProper": 58988
    },
    {
      "city": "Pamplona",
      "lat": 7.3761,
      "lng": -72.6483,
      "country": "Colombia",
      "iso2": "CO",
      "adminName": "Norte de Santander",
      "capital": "minor",
      "population": 58975,
      "populationProper": 58975
    },
    {
      "city": "Pradera",
      "lat": 3.4189,
      "lng": -76.2439,
      "country": "Colombia",
      "iso2": "CO",
      "adminName": "Valle del Cauca",
      "capital": "minor",
      "population": 57990,
      "populationProper": 57990
    },
    {
      "city": "Orito",
      "lat": 0.6661,
      "lng": -76.8708,
      "country": "Colombia",
      "iso2": "CO",
      "adminName": "Putumayo",
      "capital": "minor",
      "population": 57774,
      "populationProper": 57774
    },
    {
      "city": "Puerto Boyacá",
      "lat": 5.9761,
      "lng": -74.5875,
      "country": "Colombia",
      "iso2": "CO",
      "adminName": "Boyacá",
      "capital": "minor",
      "population": 56930,
      "populationProper": 56930
    },
    {
      "city": "El Banco",
      "lat": 9.0008,
      "lng": -73.9744,
      "country": "Colombia",
      "iso2": "CO",
      "adminName": "Magdalena",
      "capital": "minor",
      "population": 55530,
      "populationProper": 55530
    },
    {
      "city": "San Gil",
      "lat": 6.555,
      "lng": -73.1336,
      "country": "Colombia",
      "iso2": "CO",
      "adminName": "Santander",
      "capital": "minor",
      "population": 54687,
      "populationProper": 54687
    },
    {
      "city": "Sabaneta",
      "lat": 6.1508,
      "lng": -75.615,
      "country": "Colombia",
      "iso2": "CO",
      "adminName": "Antioquia",
      "capital": "minor",
      "population": 54573,
      "populationProper": 54573
    },
    {
      "city": "Valle del Guamuez",
      "lat": 0.4253,
      "lng": -76.9053,
      "country": "Colombia",
      "iso2": "CO",
      "adminName": "Putumayo",
      "capital": "",
      "population": 54237,
      "populationProper": 54237
    },
    {
      "city": "Puerto Libertador",
      "lat": 7.8881,
      "lng": -75.6717,
      "country": "Colombia",
      "iso2": "CO",
      "adminName": "Córdoba",
      "capital": "minor",
      "population": 53990,
      "populationProper": 53990
    },
    {
      "city": "Tame",
      "lat": 6.4583,
      "lng": -71.7447,
      "country": "Colombia",
      "iso2": "CO",
      "adminName": "Arauca",
      "capital": "minor",
      "population": 53266,
      "populationProper": 53266
    },
    {
      "city": "Barbosa",
      "lat": 6.4375,
      "lng": -75.3306,
      "country": "Colombia",
      "iso2": "CO",
      "adminName": "Antioquia",
      "capital": "minor",
      "population": 53167,
      "populationProper": 53167
    },
    {
      "city": "Lorica",
      "lat": 9.2419,
      "lng": -75.816,
      "country": "Colombia",
      "iso2": "CO",
      "adminName": "Córdoba",
      "capital": "minor",
      "population": 52771,
      "populationProper": 40605
    },
    {
      "city": "San Onofre",
      "lat": 9.7372,
      "lng": -75.5256,
      "country": "Colombia",
      "iso2": "CO",
      "adminName": "Sucre",
      "capital": "minor",
      "population": 51991,
      "populationProper": 51991
    },
    {
      "city": "Guarne",
      "lat": 6.2792,
      "lng": -75.4419,
      "country": "Colombia",
      "iso2": "CO",
      "adminName": "Antioquia",
      "capital": "minor",
      "population": 51265,
      "populationProper": 51265
    },
    {
      "city": "El Bagre",
      "lat": 7.6047,
      "lng": -74.8086,
      "country": "Colombia",
      "iso2": "CO",
      "adminName": "Antioquia",
      "capital": "minor",
      "population": 50863,
      "populationProper": 50863
    },
    {
      "city": "Chinú",
      "lat": 9.1097,
      "lng": -75.3981,
      "country": "Colombia",
      "iso2": "CO",
      "adminName": "Córdoba",
      "capital": "minor",
      "population": 50313,
      "populationProper": 50313
    },
    {
      "city": "Baranoa",
      "lat": 10.7956,
      "lng": -74.9194,
      "country": "Colombia",
      "iso2": "CO",
      "adminName": "Atlántico",
      "capital": "minor",
      "population": 50261,
      "populationProper": 50261
    },
    {
      "city": "Puerto Berrío",
      "lat": 6.4906,
      "lng": -74.4047,
      "country": "Colombia",
      "iso2": "CO",
      "adminName": "Antioquia",
      "capital": "minor",
      "population": 50232,
      "populationProper": 50232
    },
    {
      "city": "Cimitarra",
      "lat": 6.3133,
      "lng": -73.95,
      "country": "Colombia",
      "iso2": "CO",
      "adminName": "Santander",
      "capital": "minor",
      "population": 49593,
      "populationProper": 49593
    },
    {
      "city": "María la Baja",
      "lat": 9.9811,
      "lng": -75.2986,
      "country": "Colombia",
      "iso2": "CO",
      "adminName": "Bolívar",
      "capital": "minor",
      "population": 49462,
      "populationProper": 49462
    },
    {
      "city": "Agustín Codazzi",
      "lat": 10.0367,
      "lng": -73.2369,
      "country": "Colombia",
      "iso2": "CO",
      "adminName": "Cesar",
      "capital": "minor",
      "population": 49233,
      "populationProper": 49233
    },
    {
      "city": "Samaniego",
      "lat": 1.3364,
      "lng": -77.5925,
      "country": "Colombia",
      "iso2": "CO",
      "adminName": "Nariño",
      "capital": "minor",
      "population": 49178,
      "populationProper": 49178
    },
    {
      "city": "Carmen de Viboral",
      "lat": 6.0819,
      "lng": -75.3342,
      "country": "Colombia",
      "iso2": "CO",
      "adminName": "Antioquia",
      "capital": "minor",
      "population": 49076,
      "populationProper": 49076
    },
    {
      "city": "Yarumal",
      "lat": 6.9633,
      "lng": -75.4172,
      "country": "Colombia",
      "iso2": "CO",
      "adminName": "Antioquia",
      "capital": "minor",
      "population": 48556,
      "populationProper": 48556
    },
    {
      "city": "La Vega",
      "lat": 2.0008,
      "lng": -76.7778,
      "country": "Colombia",
      "iso2": "CO",
      "adminName": "Cauca",
      "capital": "minor",
      "population": 47417,
      "populationProper": 47417
    },
    {
      "city": "Chaparral",
      "lat": 3.7236,
      "lng": -75.4847,
      "country": "Colombia",
      "iso2": "CO",
      "adminName": "Tolima",
      "capital": "minor",
      "population": 47397,
      "populationProper": 47397
    },
    {
      "city": "Andes",
      "lat": 5.6556,
      "lng": -75.8803,
      "country": "Colombia",
      "iso2": "CO",
      "adminName": "Antioquia",
      "capital": "minor",
      "population": 47384,
      "populationProper": 47384
    },
    {
      "city": "San Andrés de Sotavento",
      "lat": 9.1453,
      "lng": -75.5086,
      "country": "Colombia",
      "iso2": "CO",
      "adminName": "Córdoba",
      "capital": "minor",
      "population": 47282,
      "populationProper": 47282
    },
    {
      "city": "Ayapel",
      "lat": 8.3125,
      "lng": -75.145,
      "country": "Colombia",
      "iso2": "CO",
      "adminName": "Córdoba",
      "capital": "minor",
      "population": 47247,
      "populationProper": 47247
    },
    {
      "city": "Urrao",
      "lat": 6.3156,
      "lng": -76.1342,
      "country": "Colombia",
      "iso2": "CO",
      "adminName": "Antioquia",
      "capital": "minor",
      "population": 47128,
      "populationProper": 47128
    },
    {
      "city": "Zarzal",
      "lat": 4.3942,
      "lng": -76.0703,
      "country": "Colombia",
      "iso2": "CO",
      "adminName": "Valle del Cauca",
      "capital": "minor",
      "population": 47062,
      "populationProper": 47062
    },
    {
      "city": "Valencia",
      "lat": 8.2592,
      "lng": -76.1469,
      "country": "Colombia",
      "iso2": "CO",
      "adminName": "Córdoba",
      "capital": "minor",
      "population": 46897,
      "populationProper": 46897
    },
    {
      "city": "Roldanillo",
      "lat": 4.4136,
      "lng": -76.1547,
      "country": "Colombia",
      "iso2": "CO",
      "adminName": "Valle del Cauca",
      "capital": "minor",
      "population": 46788,
      "populationProper": 46788
    },
    {
      "city": "Puerto Tejada",
      "lat": 3.23,
      "lng": -76.4175,
      "country": "Colombia",
      "iso2": "CO",
      "adminName": "Cauca",
      "capital": "minor",
      "population": 46166,
      "populationProper": 46166
    },
    {
      "city": "Santa Rosa del Sur",
      "lat": 7.9633,
      "lng": -74.0533,
      "country": "Colombia",
      "iso2": "CO",
      "adminName": "Bolívar",
      "capital": "minor",
      "population": 46017,
      "populationProper": 46017
    },
    {
      "city": "San Pelayo",
      "lat": 8.9578,
      "lng": -75.8375,
      "country": "Colombia",
      "iso2": "CO",
      "adminName": "Córdoba",
      "capital": "minor",
      "population": 45396,
      "populationProper": 45396
    },
    {
      "city": "Arboletes",
      "lat": 8.8511,
      "lng": -76.4272,
      "country": "Colombia",
      "iso2": "CO",
      "adminName": "Antioquia",
      "capital": "minor",
      "population": 44560,
      "populationProper": 44560
    },
    {
      "city": "Villeta",
      "lat": 5.0128,
      "lng": -74.4731,
      "country": "Colombia",
      "iso2": "CO",
      "adminName": "Cundinamarca",
      "capital": "minor",
      "population": 43574,
      "populationProper": 43574
    },
    {
      "city": "Aguazul",
      "lat": 5.1689,
      "lng": -72.5467,
      "country": "Colombia",
      "iso2": "CO",
      "adminName": "Casanare",
      "capital": "minor",
      "population": 43183,
      "populationProper": 43183
    },
    {
      "city": "Cumaribo",
      "lat": 4.4461,
      "lng": -69.7956,
      "country": "Colombia",
      "iso2": "CO",
      "adminName": "Vichada",
      "capital": "minor",
      "population": 43138,
      "populationProper": 43138
    },
    {
      "city": "Miranda",
      "lat": 3.2503,
      "lng": -76.2286,
      "country": "Colombia",
      "iso2": "CO",
      "adminName": "Cauca",
      "capital": "minor",
      "population": 42639,
      "populationProper": 42639
    },
    {
      "city": "El Charco",
      "lat": 2.4775,
      "lng": -78.1111,
      "country": "Colombia",
      "iso2": "CO",
      "adminName": "Nariño",
      "capital": "minor",
      "population": 42525,
      "populationProper": 42525
    },
    {
      "city": "Cáceres",
      "lat": 7.5794,
      "lng": -75.3503,
      "country": "Colombia",
      "iso2": "CO",
      "adminName": "Antioquia",
      "capital": "minor",
      "population": 42112,
      "populationProper": 42112
    },
    {
      "city": "Montenegro",
      "lat": 4.5653,
      "lng": -75.7511,
      "country": "Colombia",
      "iso2": "CO",
      "adminName": "Quindío",
      "capital": "minor",
      "population": 41857,
      "populationProper": 41857
    },
    {
      "city": "Pueblo Nuevo",
      "lat": 8.505,
      "lng": -75.5075,
      "country": "Colombia",
      "iso2": "CO",
      "adminName": "Córdoba",
      "capital": "minor",
      "population": 41684,
      "populationProper": 41684
    },
    {
      "city": "Tuchín",
      "lat": 9.1858,
      "lng": -75.5553,
      "country": "Colombia",
      "iso2": "CO",
      "adminName": "Córdoba",
      "capital": "minor",
      "population": 41345,
      "populationProper": 41345
    },
    {
      "city": "Arauquita",
      "lat": 7.0261,
      "lng": -71.4272,
      "country": "Colombia",
      "iso2": "CO",
      "adminName": "Arauca",
      "capital": "minor",
      "population": 41309,
      "populationProper": 41309
    },
    {
      "city": "Guaduas",
      "lat": 5.0694,
      "lng": -74.5981,
      "country": "Colombia",
      "iso2": "CO",
      "adminName": "Cundinamarca",
      "capital": "minor",
      "population": 41142,
      "populationProper": 41142
    },
    {
      "city": "Pie de Pató",
      "lat": 5.5153,
      "lng": -76.9747,
      "country": "Colombia",
      "iso2": "CO",
      "adminName": "Chocó",
      "capital": "minor",
      "population": 40733,
      "populationProper": 40733
    },
    {
      "city": "Cumbal",
      "lat": 0.9078,
      "lng": -77.7908,
      "country": "Colombia",
      "iso2": "CO",
      "adminName": "Nariño",
      "capital": "minor",
      "population": 40492,
      "populationProper": 40492
    },
    {
      "city": "Aracataca",
      "lat": 10.5911,
      "lng": -74.185,
      "country": "Colombia",
      "iso2": "CO",
      "adminName": "Magdalena",
      "capital": "minor",
      "population": 40400,
      "populationProper": 40400
    },
    {
      "city": "La Unión",
      "lat": 4.5331,
      "lng": -76.1006,
      "country": "Colombia",
      "iso2": "CO",
      "adminName": "Valle del Cauca",
      "capital": "minor",
      "population": 40339,
      "populationProper": 40339
    },
    {
      "city": "Túquerres",
      "lat": 1.0872,
      "lng": -77.6189,
      "country": "Colombia",
      "iso2": "CO",
      "adminName": "Nariño",
      "capital": "minor",
      "population": 40159,
      "populationProper": 40159
    },
    {
      "city": "Acevedo",
      "lat": 1.8047,
      "lng": -75.8897,
      "country": "Colombia",
      "iso2": "CO",
      "adminName": "Huila",
      "capital": "minor",
      "population": 39877,
      "populationProper": 39877
    },
    {
      "city": "Bosconia",
      "lat": 9.9761,
      "lng": -73.8903,
      "country": "Colombia",
      "iso2": "CO",
      "adminName": "Cesar",
      "capital": "minor",
      "population": 39716,
      "populationProper": 39716
    },
    {
      "city": "Líbano",
      "lat": 4.9206,
      "lng": -75.0611,
      "country": "Colombia",
      "iso2": "CO",
      "adminName": "Tolima",
      "capital": "minor",
      "population": 39665,
      "populationProper": 39665
    },
    {
      "city": "Villa de San Diego de Ubaté",
      "lat": 5.3072,
      "lng": -73.8144,
      "country": "Colombia",
      "iso2": "CO",
      "adminName": "Cundinamarca",
      "capital": "minor",
      "population": 39568,
      "populationProper": 39568
    },
    {
      "city": "San Juan del Cesar",
      "lat": 10.7708,
      "lng": -73.0031,
      "country": "Colombia",
      "iso2": "CO",
      "adminName": "La Guajira",
      "capital": "minor",
      "population": 39472,
      "populationProper": 39472
    },
    {
      "city": "Tarazá",
      "lat": 7.5839,
      "lng": -75.4003,
      "country": "Colombia",
      "iso2": "CO",
      "adminName": "Antioquia",
      "capital": "minor",
      "population": 39257,
      "populationProper": 39257
    },
    {
      "city": "Cajibío",
      "lat": 2.6233,
      "lng": -76.5731,
      "country": "Colombia",
      "iso2": "CO",
      "adminName": "Cauca",
      "capital": "minor",
      "population": 38703,
      "populationProper": 38703
    },
    {
      "city": "Segovia",
      "lat": 7.0781,
      "lng": -74.7017,
      "country": "Colombia",
      "iso2": "CO",
      "adminName": "Antioquia",
      "capital": "minor",
      "population": 38661,
      "populationProper": 38661
    },
    {
      "city": "Sibaté",
      "lat": 4.4908,
      "lng": -74.2594,
      "country": "Colombia",
      "iso2": "CO",
      "adminName": "Cundinamarca",
      "capital": "minor",
      "population": 38412,
      "populationProper": 38412
    },
    {
      "city": "Sampués",
      "lat": 9.1847,
      "lng": -75.3786,
      "country": "Colombia",
      "iso2": "CO",
      "adminName": "Sucre",
      "capital": "minor",
      "population": 37925,
      "populationProper": 37925
    },
    {
      "city": "Dibulla",
      "lat": 11.2725,
      "lng": -73.3089,
      "country": "Colombia",
      "iso2": "CO",
      "adminName": "La Guajira",
      "capital": "minor",
      "population": 37854,
      "populationProper": 37854
    },
    {
      "city": "El Bordo",
      "lat": 2.1142,
      "lng": -76.9831,
      "country": "Colombia",
      "iso2": "CO",
      "adminName": "Cauca",
      "capital": "minor",
      "population": 37504,
      "populationProper": 37504
    },
    {
      "city": "Santa Rosa de Osos",
      "lat": 6.6472,
      "lng": -75.4606,
      "country": "Colombia",
      "iso2": "CO",
      "adminName": "Antioquia",
      "capital": "minor",
      "population": 37435,
      "populationProper": 37435
    },
    {
      "city": "Tibú",
      "lat": 8.64,
      "lng": -72.7381,
      "country": "Colombia",
      "iso2": "CO",
      "adminName": "Norte de Santander",
      "capital": "minor",
      "population": 37286,
      "populationProper": 37286
    },
    {
      "city": "Melgar",
      "lat": 4.2039,
      "lng": -74.6428,
      "country": "Colombia",
      "iso2": "CO",
      "adminName": "Tolima",
      "capital": "minor",
      "population": 37224,
      "populationProper": 37224
    },
    {
      "city": "Dagua",
      "lat": 3.6575,
      "lng": -76.6917,
      "country": "Colombia",
      "iso2": "CO",
      "adminName": "Valle del Cauca",
      "capital": "minor",
      "population": 36891,
      "populationProper": 36891
    },
    {
      "city": "La Macarena",
      "lat": 2.1828,
      "lng": -73.7847,
      "country": "Colombia",
      "iso2": "CO",
      "adminName": "Meta",
      "capital": "minor",
      "population": 36781,
      "populationProper": 36781
    },
    {
      "city": "Belalcázar",
      "lat": 2.6469,
      "lng": -75.9717,
      "country": "Colombia",
      "iso2": "CO",
      "adminName": "Cauca",
      "capital": "minor",
      "population": 36628,
      "populationProper": 36628
    },
    {
      "city": "Sonsón",
      "lat": 5.7094,
      "lng": -75.3106,
      "country": "Colombia",
      "iso2": "CO",
      "adminName": "Antioquia",
      "capital": "minor",
      "population": 36445,
      "populationProper": 36445
    },
    {
      "city": "San Pablo",
      "lat": 7.4764,
      "lng": -73.9231,
      "country": "Colombia",
      "iso2": "CO",
      "adminName": "Bolívar",
      "capital": "minor",
      "population": 36341,
      "populationProper": 36341
    },
    {
      "city": "San Bernardo del Viento",
      "lat": 9.355,
      "lng": -75.9544,
      "country": "Colombia",
      "iso2": "CO",
      "adminName": "Córdoba",
      "capital": "minor",
      "population": 36200,
      "populationProper": 36200
    },
    {
      "city": "Santiago de Tolú",
      "lat": 9.525,
      "lng": -75.5817,
      "country": "Colombia",
      "iso2": "CO",
      "adminName": "Sucre",
      "capital": "minor",
      "population": 35670,
      "populationProper": 35670
    },
    {
      "city": "Guacarí",
      "lat": 3.7647,
      "lng": -76.3322,
      "country": "Colombia",
      "iso2": "CO",
      "adminName": "Valle del Cauca",
      "capital": "minor",
      "population": 35662,
      "populationProper": 35662
    },
    {
      "city": "Timbío",
      "lat": 2.3528,
      "lng": -76.6819,
      "country": "Colombia",
      "iso2": "CO",
      "adminName": "Cauca",
      "capital": "minor",
      "population": 35564,
      "populationProper": 35564
    },
    {
      "city": "Gigante",
      "lat": 2.3867,
      "lng": -75.5461,
      "country": "Colombia",
      "iso2": "CO",
      "adminName": "Huila",
      "capital": "minor",
      "population": 35498,
      "populationProper": 35498
    },
    {
      "city": "Cartagena del Chairá",
      "lat": 1.3361,
      "lng": -74.8467,
      "country": "Colombia",
      "iso2": "CO",
      "adminName": "Caquetá",
      "capital": "minor",
      "population": 35473,
      "populationProper": 35473
    },
    {
      "city": "Tocancipá",
      "lat": 4.9661,
      "lng": -73.9111,
      "country": "Colombia",
      "iso2": "CO",
      "adminName": "Cundinamarca",
      "capital": "minor",
      "population": 35439,
      "populationProper": 35439
    },
    {
      "city": "Yarumal",
      "lat": 7.0306,
      "lng": -75.5905,
      "country": "Colombia",
      "iso2": "CO",
      "adminName": "Antioquia",
      "capital": "",
      "population": 35315,
      "populationProper": 35315
    },
    {
      "city": "Quimbaya",
      "lat": 4.6239,
      "lng": -75.7631,
      "country": "Colombia",
      "iso2": "CO",
      "adminName": "Quindío",
      "capital": "minor",
      "population": 35276,
      "populationProper": 35276
    },
    {
      "city": "Fonseca",
      "lat": 10.8858,
      "lng": -72.8481,
      "country": "Colombia",
      "iso2": "CO",
      "adminName": "La Guajira",
      "capital": "minor",
      "population": 35205,
      "populationProper": 35205
    },
    {
      "city": "San Vicente de Chucurí",
      "lat": 6.8819,
      "lng": -73.4119,
      "country": "Colombia",
      "iso2": "CO",
      "adminName": "Santander",
      "capital": "minor",
      "population": 35121,
      "populationProper": 35121
    },
    {
      "city": "Puerto López",
      "lat": 4.0897,
      "lng": -72.9619,
      "country": "Colombia",
      "iso2": "CO",
      "adminName": "Meta",
      "capital": "minor",
      "population": 35097,
      "populationProper": 35097
    },
    {
      "city": "San Luis de Sincé",
      "lat": 9.2447,
      "lng": -75.1458,
      "country": "Colombia",
      "iso2": "CO",
      "adminName": "Sucre",
      "capital": "minor",
      "population": 35022,
      "populationProper": 35022
    },
    {
      "city": "Campoalegre",
      "lat": 2.6867,
      "lng": -75.3256,
      "country": "Colombia",
      "iso2": "CO",
      "adminName": "Huila",
      "capital": "minor",
      "population": 34923,
      "populationProper": 34923
    },
    {
      "city": "Sabanagrande",
      "lat": 10.7903,
      "lng": -74.7556,
      "country": "Colombia",
      "iso2": "CO",
      "adminName": "Atlántico",
      "capital": "minor",
      "population": 34369,
      "populationProper": 34369
    },
    {
      "city": "Caldono",
      "lat": 2.7969,
      "lng": -76.4828,
      "country": "Colombia",
      "iso2": "CO",
      "adminName": "Cauca",
      "capital": "minor",
      "population": 34132,
      "populationProper": 34132
    },
    {
      "city": "San Agustín",
      "lat": 1.8792,
      "lng": -76.2683,
      "country": "Colombia",
      "iso2": "CO",
      "adminName": "Huila",
      "capital": "minor",
      "population": 34120,
      "populationProper": 34120
    },
    {
      "city": "San Juan Nepomuceno",
      "lat": 9.9522,
      "lng": -75.0811,
      "country": "Colombia",
      "iso2": "CO",
      "adminName": "Bolívar",
      "capital": "minor",
      "population": 34012,
      "populationProper": 34012
    },
    {
      "city": "Majagual",
      "lat": 8.5408,
      "lng": -74.6297,
      "country": "Colombia",
      "iso2": "CO",
      "adminName": "Sucre",
      "capital": "minor",
      "population": 34010,
      "populationProper": 34010
    },
    {
      "city": "Quinchía",
      "lat": 5.3394,
      "lng": -75.7294,
      "country": "Colombia",
      "iso2": "CO",
      "adminName": "Risaralda",
      "capital": "minor",
      "population": 34005,
      "populationProper": 34005
    },
    {
      "city": "Puerto Rico",
      "lat": 1.9075,
      "lng": -75.1583,
      "country": "Colombia",
      "iso2": "CO",
      "adminName": "Caquetá",
      "capital": "minor",
      "population": 33701,
      "populationProper": 33701
    },
    {
      "city": "San Antero",
      "lat": 9.3775,
      "lng": -75.7603,
      "country": "Colombia",
      "iso2": "CO",
      "adminName": "Córdoba",
      "capital": "minor",
      "population": 33662,
      "populationProper": 33662
    },
    {
      "city": "Corinto",
      "lat": 3.1739,
      "lng": -76.2594,
      "country": "Colombia",
      "iso2": "CO",
      "adminName": "Cauca",
      "capital": "minor",
      "population": 33489,
      "populationProper": 33489
    },
    {
      "city": "Pivijay",
      "lat": 10.4608,
      "lng": -74.6153,
      "country": "Colombia",
      "iso2": "CO",
      "adminName": "Magdalena",
      "capital": "minor",
      "population": 33225,
      "populationProper": 33225
    },
    {
      "city": "Puebloviejo",
      "lat": 10.9942,
      "lng": -74.2833,
      "country": "Colombia",
      "iso2": "CO",
      "adminName": "Magdalena",
      "capital": "minor",
      "population": 33030,
      "populationProper": 33030
    },
    {
      "city": "Bocas de Satinga",
      "lat": 2.3469,
      "lng": -78.3256,
      "country": "Colombia",
      "iso2": "CO",
      "adminName": "Nariño",
      "capital": "minor",
      "population": 32759,
      "populationProper": 32759
    },
    {
      "city": "Puerto Escondido",
      "lat": 9.0192,
      "lng": -76.2614,
      "country": "Colombia",
      "iso2": "CO",
      "adminName": "Córdoba",
      "capital": "minor",
      "population": 32745,
      "populationProper": 32745
    },
    {
      "city": "Silvia",
      "lat": 2.6108,
      "lng": -76.3789,
      "country": "Colombia",
      "iso2": "CO",
      "adminName": "Cauca",
      "capital": "minor",
      "population": 32692,
      "populationProper": 32692
    },
    {
      "city": "El Difícil",
      "lat": 9.8469,
      "lng": -74.2367,
      "country": "Colombia",
      "iso2": "CO",
      "adminName": "Magdalena",
      "capital": "minor",
      "population": 32637,
      "populationProper": 32637
    },
    {
      "city": "Inzá",
      "lat": 2.5503,
      "lng": -76.0636,
      "country": "Colombia",
      "iso2": "CO",
      "adminName": "Cauca",
      "capital": "minor",
      "population": 32582,
      "populationProper": 32582
    },
    {
      "city": "Leticia",
      "lat": -4.215,
      "lng": -69.9411,
      "country": "Colombia",
      "iso2": "CO",
      "adminName": "Amazonas",
      "capital": "admin",
      "population": 32450,
      "populationProper": 32450
    },
    {
      "city": "La Virginia",
      "lat": 4.8967,
      "lng": -75.8839,
      "country": "Colombia",
      "iso2": "CO",
      "adminName": "Risaralda",
      "capital": "minor",
      "population": 32330,
      "populationProper": 32330
    },
    {
      "city": "San Pedro de Urabá",
      "lat": 8.275,
      "lng": -76.3769,
      "country": "Colombia",
      "iso2": "CO",
      "adminName": "Antioquia",
      "capital": "minor",
      "population": 32328,
      "populationProper": 32328
    },
    {
      "city": "Remedios",
      "lat": 7.0275,
      "lng": -74.6939,
      "country": "Colombia",
      "iso2": "CO",
      "adminName": "Antioquia",
      "capital": "minor",
      "population": 32057,
      "populationProper": 32057
    },
    {
      "city": "Paipa",
      "lat": 5.78,
      "lng": -73.1175,
      "country": "Colombia",
      "iso2": "CO",
      "adminName": "Boyacá",
      "capital": "minor",
      "population": 31868,
      "populationProper": 31868
    },
    {
      "city": "Guachavés",
      "lat": 1.2219,
      "lng": -77.6772,
      "country": "Colombia",
      "iso2": "CO",
      "adminName": "Nariño",
      "capital": "minor",
      "population": 31856,
      "populationProper": 31856
    },
    {
      "city": "Sitionuevo",
      "lat": 10.7758,
      "lng": -74.7203,
      "country": "Colombia",
      "iso2": "CO",
      "adminName": "Magdalena",
      "capital": "minor",
      "population": 31706,
      "populationProper": 31706
    },
    {
      "city": "Puerto Wilches",
      "lat": 7.3483,
      "lng": -73.8983,
      "country": "Colombia",
      "iso2": "CO",
      "adminName": "Santander",
      "capital": "minor",
      "population": 31509,
      "populationProper": 31509
    },
    {
      "city": "Neira",
      "lat": 5.1664,
      "lng": -75.5189,
      "country": "Colombia",
      "iso2": "CO",
      "adminName": "Caldas",
      "capital": "minor",
      "population": 31399,
      "populationProper": 31399
    },
    {
      "city": "Guamo",
      "lat": 4.0281,
      "lng": -74.97,
      "country": "Colombia",
      "iso2": "CO",
      "adminName": "Tolima",
      "capital": "minor",
      "population": 31350,
      "populationProper": 31350
    },
    {
      "city": "Circasia",
      "lat": 4.6192,
      "lng": -75.6347,
      "country": "Colombia",
      "iso2": "CO",
      "adminName": "Quindío",
      "capital": "minor",
      "population": 30914,
      "populationProper": 30914
    },
    {
      "city": "Amagá",
      "lat": 6.0383,
      "lng": -75.7028,
      "country": "Colombia",
      "iso2": "CO",
      "adminName": "Antioquia",
      "capital": "minor",
      "population": 30376,
      "populationProper": 30376
    },
    {
      "city": "Chimichagua",
      "lat": 9.2578,
      "lng": -73.8133,
      "country": "Colombia",
      "iso2": "CO",
      "adminName": "Cesar",
      "capital": "minor",
      "population": 30303,
      "populationProper": 30303
    },
    {
      "city": "Planadas",
      "lat": 3.1964,
      "lng": -75.6444,
      "country": "Colombia",
      "iso2": "CO",
      "adminName": "Tolima",
      "capital": "minor",
      "population": 30117,
      "populationProper": 30117
    },
    {
      "city": "Fresno",
      "lat": 5.1536,
      "lng": -75.0369,
      "country": "Colombia",
      "iso2": "CO",
      "adminName": "Tolima",
      "capital": "minor",
      "population": 29794,
      "populationProper": 29794
    },
    {
      "city": "Purificación",
      "lat": 3.8567,
      "lng": -74.9325,
      "country": "Colombia",
      "iso2": "CO",
      "adminName": "Tolima",
      "capital": "minor",
      "population": 29777,
      "populationProper": 29777
    },
    {
      "city": "Tabio",
      "lat": 4.9158,
      "lng": -74.0983,
      "country": "Colombia",
      "iso2": "CO",
      "adminName": "Cundinamarca",
      "capital": "minor",
      "population": 29731,
      "populationProper": 29731
    },
    {
      "city": "Barbosa",
      "lat": 5.9331,
      "lng": -73.6147,
      "country": "Colombia",
      "iso2": "CO",
      "adminName": "Santander",
      "capital": "minor",
      "population": 29581,
      "populationProper": 29581
    },
    {
      "city": "Flandes",
      "lat": 4.2844,
      "lng": -74.8142,
      "country": "Colombia",
      "iso2": "CO",
      "adminName": "Tolima",
      "capital": "minor",
      "population": 29478,
      "populationProper": 29478
    },
    {
      "city": "Aipe",
      "lat": 3.2219,
      "lng": -75.2375,
      "country": "Colombia",
      "iso2": "CO",
      "adminName": "Huila",
      "capital": "minor",
      "population": 29177,
      "populationProper": 29177
    },
    {
      "city": "Sopó",
      "lat": 4.9081,
      "lng": -73.9403,
      "country": "Colombia",
      "iso2": "CO",
      "adminName": "Cundinamarca",
      "capital": "minor",
      "population": 29120,
      "populationProper": 29120
    },
    {
      "city": "Moñitos",
      "lat": 9.2461,
      "lng": -76.1286,
      "country": "Colombia",
      "iso2": "CO",
      "adminName": "Córdoba",
      "capital": "minor",
      "population": 29117,
      "populationProper": 29117
    },
    {
      "city": "Riosucio",
      "lat": 7.4386,
      "lng": -77.1133,
      "country": "Colombia",
      "iso2": "CO",
      "adminName": "Chocó",
      "capital": "minor",
      "population": 29036,
      "populationProper": 29036
    },
    {
      "city": "La Dorada",
      "lat": 0.3436,
      "lng": -76.9108,
      "country": "Colombia",
      "iso2": "CO",
      "adminName": "Putumayo",
      "capital": "minor",
      "population": 28982,
      "populationProper": 28982
    },
    {
      "city": "La Calera",
      "lat": 4.7197,
      "lng": -73.97,
      "country": "Colombia",
      "iso2": "CO",
      "adminName": "Cundinamarca",
      "capital": "minor",
      "population": 28908,
      "populationProper": 28908
    },
    {
      "city": "Caicedonia",
      "lat": 4.3347,
      "lng": -75.8281,
      "country": "Colombia",
      "iso2": "CO",
      "adminName": "Valle del Cauca",
      "capital": "minor",
      "population": 28825,
      "populationProper": 28825
    },
    {
      "city": "Hatonuevo",
      "lat": 11.0672,
      "lng": -72.7631,
      "country": "Colombia",
      "iso2": "CO",
      "adminName": "La Guajira",
      "capital": "minor",
      "population": 28671,
      "populationProper": 28671
    },
    {
      "city": "San Carlos",
      "lat": 8.7944,
      "lng": -75.6994,
      "country": "Colombia",
      "iso2": "CO",
      "adminName": "Córdoba",
      "capital": "minor",
      "population": 28597,
      "populationProper": 28597
    },
    {
      "city": "Isnos",
      "lat": 1.9289,
      "lng": -76.2158,
      "country": "Colombia",
      "iso2": "CO",
      "adminName": "Huila",
      "capital": "minor",
      "population": 28530,
      "populationProper": 28530
    },
    {
      "city": "Coyaima",
      "lat": 3.7975,
      "lng": -75.1939,
      "country": "Colombia",
      "iso2": "CO",
      "adminName": "Tolima",
      "capital": "minor",
      "population": 28443,
      "populationProper": 28443
    },
    {
      "city": "Mitú",
      "lat": 1.2503,
      "lng": -70.235,
      "country": "Colombia",
      "iso2": "CO",
      "adminName": "Vaupés",
      "capital": "admin",
      "population": 28382,
      "populationProper": 28382
    },
    {
      "city": "Guamal",
      "lat": 9.1442,
      "lng": -74.2236,
      "country": "Colombia",
      "iso2": "CO",
      "adminName": "Magdalena",
      "capital": "minor",
      "population": 28277,
      "populationProper": 28277
    },
    {
      "city": "Luruaco",
      "lat": 10.6083,
      "lng": -75.1417,
      "country": "Colombia",
      "iso2": "CO",
      "adminName": "Atlántico",
      "capital": "minor",
      "population": 28246,
      "populationProper": 28246
    },
    {
      "city": "Belén de Umbría",
      "lat": 5.2006,
      "lng": -75.8689,
      "country": "Colombia",
      "iso2": "CO",
      "adminName": "Risaralda",
      "capital": "minor",
      "population": 27727,
      "populationProper": 27727
    },
    {
      "city": "Argelia",
      "lat": 2.2558,
      "lng": -77.2492,
      "country": "Colombia",
      "iso2": "CO",
      "adminName": "Cauca",
      "capital": "minor",
      "population": 27670,
      "populationProper": 27670
    },
    {
      "city": "Supía",
      "lat": 5.4506,
      "lng": -75.6514,
      "country": "Colombia",
      "iso2": "CO",
      "adminName": "Caldas",
      "capital": "minor",
      "population": 27489,
      "populationProper": 27489
    },
    {
      "city": "Ciudad Bolívar",
      "lat": 5.8494,
      "lng": -76.0203,
      "country": "Colombia",
      "iso2": "CO",
      "adminName": "Antioquia",
      "capital": "minor",
      "population": 27458,
      "populationProper": 27458
    },
    {
      "city": "Repelón",
      "lat": 10.4944,
      "lng": -75.1242,
      "country": "Colombia",
      "iso2": "CO",
      "adminName": "Atlántico",
      "capital": "minor",
      "population": 27445,
      "populationProper": 27445
    },
    {
      "city": "San Juan de Urabá",
      "lat": 8.7611,
      "lng": -76.5286,
      "country": "Colombia",
      "iso2": "CO",
      "adminName": "Antioquia",
      "capital": "minor",
      "population": 27149,
      "populationProper": 27149
    },
    {
      "city": "Puerto Colombia",
      "lat": 10.9922,
      "lng": -74.9528,
      "country": "Colombia",
      "iso2": "CO",
      "adminName": "Atlántico",
      "capital": "minor",
      "population": 26932,
      "populationProper": 26932
    },
    {
      "city": "Fortul",
      "lat": 6.7931,
      "lng": -71.7714,
      "country": "Colombia",
      "iso2": "CO",
      "adminName": "Arauca",
      "capital": "minor",
      "population": 26798,
      "populationProper": 26798
    },
    {
      "city": "Morales",
      "lat": 2.7603,
      "lng": -76.6339,
      "country": "Colombia",
      "iso2": "CO",
      "adminName": "Cauca",
      "capital": "minor",
      "population": 26707,
      "populationProper": 26707
    },
    {
      "city": "Los Córdobas",
      "lat": 8.8953,
      "lng": -76.3547,
      "country": "Colombia",
      "iso2": "CO",
      "adminName": "Córdoba",
      "capital": "minor",
      "population": 26705,
      "populationProper": 26705
    },
    {
      "city": "San Benito Abad",
      "lat": 8.9272,
      "lng": -75.0264,
      "country": "Colombia",
      "iso2": "CO",
      "adminName": "Sucre",
      "capital": "minor",
      "population": 26595,
      "populationProper": 26595
    },
    {
      "city": "San Alberto",
      "lat": 7.7592,
      "lng": -73.3931,
      "country": "Colombia",
      "iso2": "CO",
      "adminName": "Cesar",
      "capital": "minor",
      "population": 26551,
      "populationProper": 26551
    },
    {
      "city": "Balboa",
      "lat": 2.0406,
      "lng": -77.2164,
      "country": "Colombia",
      "iso2": "CO",
      "adminName": "Cauca",
      "capital": "minor",
      "population": 26384,
      "populationProper": 26384
    },
    {
      "city": "Pensilvania",
      "lat": 5.384,
      "lng": -75.1612,
      "country": "Colombia",
      "iso2": "CO",
      "adminName": "Caldas",
      "capital": "minor",
      "population": 26342,
      "populationProper": 26342
    },
    {
      "city": "Paz de Ariporo",
      "lat": 5.8811,
      "lng": -71.8917,
      "country": "Colombia",
      "iso2": "CO",
      "adminName": "Casanare",
      "capital": "minor",
      "population": 26237,
      "populationProper": 26237
    },
    {
      "city": "Buesaco",
      "lat": 1.3847,
      "lng": -77.1564,
      "country": "Colombia",
      "iso2": "CO",
      "adminName": "Nariño",
      "capital": "minor",
      "population": 26229,
      "populationProper": 26229
    },
    {
      "city": "Istmina",
      "lat": 5.1633,
      "lng": -76.6867,
      "country": "Colombia",
      "iso2": "CO",
      "adminName": "Chocó",
      "capital": "minor",
      "population": 25981,
      "populationProper": 25981
    },
    {
      "city": "Santa Ana",
      "lat": 9.3194,
      "lng": -74.5706,
      "country": "Colombia",
      "iso2": "CO",
      "adminName": "Magdalena",
      "capital": "minor",
      "population": 25938,
      "populationProper": 25938
    },
    {
      "city": "San Martín",
      "lat": 3.6969,
      "lng": -73.6986,
      "country": "Colombia",
      "iso2": "CO",
      "adminName": "Meta",
      "capital": "minor",
      "population": 25902,
      "populationProper": 25902
    },
    {
      "city": "Palmar de Varela",
      "lat": 10.7389,
      "lng": -74.7547,
      "country": "Colombia",
      "iso2": "CO",
      "adminName": "Atlántico",
      "capital": "minor",
      "population": 25886,
      "populationProper": 25886
    },
    {
      "city": "Nechí",
      "lat": 8.0958,
      "lng": -74.775,
      "country": "Colombia",
      "iso2": "CO",
      "adminName": "Antioquia",
      "capital": "minor",
      "population": 25790,
      "populationProper": 25790
    },
    {
      "city": "Yolombó",
      "lat": 6.5978,
      "lng": -75.0122,
      "country": "Colombia",
      "iso2": "CO",
      "adminName": "Antioquia",
      "capital": "minor",
      "population": 25647,
      "populationProper": 25647
    },
    {
      "city": "Solano",
      "lat": 0.6983,
      "lng": -75.2539,
      "country": "Colombia",
      "iso2": "CO",
      "adminName": "Caquetá",
      "capital": "minor",
      "population": 25546,
      "populationProper": 25546
    },
    {
      "city": "Vistahermosa",
      "lat": 3.1239,
      "lng": -73.7514,
      "country": "Colombia",
      "iso2": "CO",
      "adminName": "Meta",
      "capital": "minor",
      "population": 25461,
      "populationProper": 25461
    },
    {
      "city": "San José",
      "lat": 1.6967,
      "lng": -78.2453,
      "country": "Colombia",
      "iso2": "CO",
      "adminName": "Nariño",
      "capital": "minor",
      "population": 25433,
      "populationProper": 25433
    },
    {
      "city": "La Unión",
      "lat": 1.6053,
      "lng": -77.1297,
      "country": "Colombia",
      "iso2": "CO",
      "adminName": "Nariño",
      "capital": "minor",
      "population": 25270,
      "populationProper": 25270
    },
    {
      "city": "Chocontá",
      "lat": 5.1467,
      "lng": -73.6825,
      "country": "Colombia",
      "iso2": "CO",
      "adminName": "Cundinamarca",
      "capital": "minor",
      "population": 25257,
      "populationProper": 25257
    },
    {
      "city": "Sandoná",
      "lat": 1.2847,
      "lng": -77.4711,
      "country": "Colombia",
      "iso2": "CO",
      "adminName": "Nariño",
      "capital": "minor",
      "population": 25220,
      "populationProper": 25220
    },
    {
      "city": "Pinillos",
      "lat": 8.915,
      "lng": -74.4619,
      "country": "Colombia",
      "iso2": "CO",
      "adminName": "Bolívar",
      "capital": "minor",
      "population": 24923,
      "populationProper": 24923
    },
    {
      "city": "Socorro",
      "lat": 6.4603,
      "lng": -73.27,
      "country": "Colombia",
      "iso2": "CO",
      "adminName": "Santander",
      "capital": "minor",
      "population": 24895,
      "populationProper": 17752
    },
    {
      "city": "Tauramena",
      "lat": 5.0167,
      "lng": -72.75,
      "country": "Colombia",
      "iso2": "CO",
      "adminName": "Casanare",
      "capital": "minor",
      "population": 24747,
      "populationProper": 24747
    },
    {
      "city": "Villanueva",
      "lat": 4.6087,
      "lng": -72.9288,
      "country": "Colombia",
      "iso2": "CO",
      "adminName": "Casanare",
      "capital": "minor",
      "population": 24740,
      "populationProper": 24740
    },
    {
      "city": "Algeciras",
      "lat": 2.5219,
      "lng": -75.3144,
      "country": "Colombia",
      "iso2": "CO",
      "adminName": "Huila",
      "capital": "minor",
      "population": 24708,
      "populationProper": 24708
    },
    {
      "city": "Santa Rosa",
      "lat": 10.4456,
      "lng": -75.3686,
      "country": "Colombia",
      "iso2": "CO",
      "adminName": "Bolívar",
      "capital": "minor",
      "population": 24694,
      "populationProper": 24694
    },
    {
      "city": "Pueblo Bello",
      "lat": 10.4164,
      "lng": -73.5867,
      "country": "Colombia",
      "iso2": "CO",
      "adminName": "Cesar",
      "capital": "minor",
      "population": 24572,
      "populationProper": 24572
    },
    {
      "city": "El Retorno",
      "lat": 2.3306,
      "lng": -72.6278,
      "country": "Colombia",
      "iso2": "CO",
      "adminName": "Guaviare",
      "capital": "minor",
      "population": 24562,
      "populationProper": 24562
    },
    {
      "city": "Valdivia",
      "lat": 7.1636,
      "lng": -75.4392,
      "country": "Colombia",
      "iso2": "CO",
      "adminName": "Antioquia",
      "capital": "minor",
      "population": 24538,
      "populationProper": 24538
    },
    {
      "city": "Puerto Guzmán",
      "lat": 0.9636,
      "lng": -76.4086,
      "country": "Colombia",
      "iso2": "CO",
      "adminName": "Putumayo",
      "capital": "minor",
      "population": 24355,
      "populationProper": 24355
    },
    {
      "city": "La Montañita",
      "lat": 1.4792,
      "lng": -75.4361,
      "country": "Colombia",
      "iso2": "CO",
      "adminName": "Caquetá",
      "capital": "minor",
      "population": 24323,
      "populationProper": 24323
    },
    {
      "city": "Donmatías",
      "lat": 6.4858,
      "lng": -75.3953,
      "country": "Colombia",
      "iso2": "CO",
      "adminName": "Antioquia",
      "capital": "minor",
      "population": 24201,
      "populationProper": 24201
    },
    {
      "city": "Rioblanco",
      "lat": 3.5292,
      "lng": -75.6447,
      "country": "Colombia",
      "iso2": "CO",
      "adminName": "Tolima",
      "capital": "minor",
      "population": 24139,
      "populationProper": 24139
    },
    {
      "city": "Marsella",
      "lat": 4.9367,
      "lng": -75.7392,
      "country": "Colombia",
      "iso2": "CO",
      "adminName": "Risaralda",
      "capital": "minor",
      "population": 24131,
      "populationProper": 24131
    },
    {
      "city": "Cogua",
      "lat": 5.0619,
      "lng": -73.9794,
      "country": "Colombia",
      "iso2": "CO",
      "adminName": "Cundinamarca",
      "capital": "minor",
      "population": 24092,
      "populationProper": 24092
    },
    {
      "city": "El Zulia",
      "lat": 7.9325,
      "lng": -72.6025,
      "country": "Colombia",
      "iso2": "CO",
      "adminName": "Norte de Santander",
      "capital": "minor",
      "population": 23921,
      "populationProper": 23921
    },
    {
      "city": "Honda",
      "lat": 5.2069,
      "lng": -74.7367,
      "country": "Colombia",
      "iso2": "CO",
      "adminName": "Tolima",
      "capital": "minor",
      "population": 23830,
      "populationProper": 23830
    },
    {
      "city": "El Paso",
      "lat": 9.6622,
      "lng": -73.7519,
      "country": "Colombia",
      "iso2": "CO",
      "adminName": "Cesar",
      "capital": "minor",
      "population": 23534,
      "populationProper": 23534
    },
    {
      "city": "Canalete",
      "lat": 8.79,
      "lng": -76.2411,
      "country": "Colombia",
      "iso2": "CO",
      "adminName": "Córdoba",
      "capital": "minor",
      "population": 23520,
      "populationProper": 23520
    },
    {
      "city": "Teorama",
      "lat": 8.4353,
      "lng": -73.2864,
      "country": "Colombia",
      "iso2": "CO",
      "adminName": "Norte de Santander",
      "capital": "minor",
      "population": 23381,
      "populationProper": 23381
    },
    {
      "city": "San José",
      "lat": 1.4739,
      "lng": -77.0808,
      "country": "Colombia",
      "iso2": "CO",
      "adminName": "Nariño",
      "capital": "minor",
      "population": 23279,
      "populationProper": 23279
    },
    {
      "city": "Ponedera",
      "lat": 10.6419,
      "lng": -74.7531,
      "country": "Colombia",
      "iso2": "CO",
      "adminName": "Atlántico",
      "capital": "minor",
      "population": 23243,
      "populationProper": 23243
    },
    {
      "city": "Alcalá",
      "lat": 4.6736,
      "lng": -75.7825,
      "country": "Colombia",
      "iso2": "CO",
      "adminName": "Valle del Cauca",
      "capital": "minor",
      "population": 23195,
      "populationProper": 23195
    },
    {
      "city": "Puerto Concordia",
      "lat": 2.6233,
      "lng": -72.7592,
      "country": "Colombia",
      "iso2": "CO",
      "adminName": "Meta",
      "capital": "minor",
      "population": 23131,
      "populationProper": 23131
    },
    {
      "city": "Achí",
      "lat": 8.5692,
      "lng": -74.5561,
      "country": "Colombia",
      "iso2": "CO",
      "adminName": "Bolívar",
      "capital": "minor",
      "population": 23051,
      "populationProper": 23051
    },
    {
      "city": "Curumaní",
      "lat": 9.1997,
      "lng": -73.5425,
      "country": "Colombia",
      "iso2": "CO",
      "adminName": "Cesar",
      "capital": "minor",
      "population": 23018,
      "populationProper": 23018
    },
    {
      "city": "Dabeiba",
      "lat": 7.0014,
      "lng": -76.2611,
      "country": "Colombia",
      "iso2": "CO",
      "adminName": "Antioquia",
      "capital": "minor",
      "population": 22954,
      "populationProper": 22954
    },
    {
      "city": "Guadalupe",
      "lat": 2.025,
      "lng": -75.7564,
      "country": "Colombia",
      "iso2": "CO",
      "adminName": "Huila",
      "capital": "minor",
      "population": 22867,
      "populationProper": 22867
    },
    {
      "city": "Ataco",
      "lat": 3.5897,
      "lng": -75.3822,
      "country": "Colombia",
      "iso2": "CO",
      "adminName": "Tolima",
      "capital": "minor",
      "population": 22818,
      "populationProper": 22818
    },
    {
      "city": "Santa Fe de Antioquia",
      "lat": 6.5564,
      "lng": -75.8275,
      "country": "Colombia",
      "iso2": "CO",
      "adminName": "Antioquia",
      "capital": "minor",
      "population": 22764,
      "populationProper": 22764
    },
    {
      "city": "Amalfi",
      "lat": 6.9092,
      "lng": -75.0767,
      "country": "Colombia",
      "iso2": "CO",
      "adminName": "Antioquia",
      "capital": "minor",
      "population": 22714,
      "populationProper": 22714
    },
    {
      "city": "Buenavista",
      "lat": 8.2233,
      "lng": -75.4817,
      "country": "Colombia",
      "iso2": "CO",
      "adminName": "Córdoba",
      "capital": "minor",
      "population": 22711,
      "populationProper": 22711
    },
    {
      "city": "Manzanares",
      "lat": 5.2519,
      "lng": -75.1569,
      "country": "Colombia",
      "iso2": "CO",
      "adminName": "Caldas",
      "capital": "minor",
      "population": 22623,
      "populationProper": 22623
    },
    {
      "city": "Sardinata",
      "lat": 8.0836,
      "lng": -72.8003,
      "country": "Colombia",
      "iso2": "CO",
      "adminName": "Norte de Santander",
      "capital": "minor",
      "population": 22583,
      "populationProper": 22583
    },
    {
      "city": "Mutatá",
      "lat": 7.2433,
      "lng": -76.4358,
      "country": "Colombia",
      "iso2": "CO",
      "adminName": "Antioquia",
      "capital": "minor",
      "population": 22505,
      "populationProper": 22505
    },
    {
      "city": "La Jagua de Ibirico",
      "lat": 9.5611,
      "lng": -73.3364,
      "country": "Colombia",
      "iso2": "CO",
      "adminName": "Cesar",
      "capital": "minor",
      "population": 22405,
      "populationProper": 22405
    },
    {
      "city": "Natagaima",
      "lat": 3.6231,
      "lng": -75.0936,
      "country": "Colombia",
      "iso2": "CO",
      "adminName": "Tolima",
      "capital": "minor",
      "population": 22320,
      "populationProper": 22320
    },
    {
      "city": "El Doncello",
      "lat": 1.68,
      "lng": -75.285,
      "country": "Colombia",
      "iso2": "CO",
      "adminName": "Caquetá",
      "capital": "minor",
      "population": 22306,
      "populationProper": 22306
    },
    {
      "city": "El Colegio",
      "lat": 4.5808,
      "lng": -74.4425,
      "country": "Colombia",
      "iso2": "CO",
      "adminName": "Cundinamarca",
      "capital": "minor",
      "population": 22247,
      "populationProper": 22247
    },
    {
      "city": "Pailitas",
      "lat": 8.9597,
      "lng": -73.625,
      "country": "Colombia",
      "iso2": "CO",
      "adminName": "Cesar",
      "capital": "minor",
      "population": 22083,
      "populationProper": 22083
    },
    {
      "city": "Timbiquí",
      "lat": 2.7719,
      "lng": -77.665,
      "country": "Colombia",
      "iso2": "CO",
      "adminName": "Cauca",
      "capital": "minor",
      "population": 22077,
      "populationProper": 22077
    },
    {
      "city": "Tiquisio",
      "lat": 8.5578,
      "lng": -74.2639,
      "country": "Colombia",
      "iso2": "CO",
      "adminName": "Bolívar",
      "capital": "minor",
      "population": 22041,
      "populationProper": 22041
    },
    {
      "city": "Mocoa",
      "lat": 1.1492,
      "lng": -76.6464,
      "country": "Colombia",
      "iso2": "CO",
      "adminName": "Putumayo",
      "capital": "admin",
      "population": 22035,
      "populationProper": 22035
    },
    {
      "city": "Silvania",
      "lat": 4.4033,
      "lng": -74.3881,
      "country": "Colombia",
      "iso2": "CO",
      "adminName": "Cundinamarca",
      "capital": "minor",
      "population": 22020,
      "populationProper": 22020
    },
    {
      "city": "Taminango",
      "lat": 1.57,
      "lng": -77.2806,
      "country": "Colombia",
      "iso2": "CO",
      "adminName": "Nariño",
      "capital": "minor",
      "population": 21985,
      "populationProper": 21985
    },
    {
      "city": "Ginebra",
      "lat": 3.7244,
      "lng": -76.2672,
      "country": "Colombia",
      "iso2": "CO",
      "adminName": "Valle del Cauca",
      "capital": "minor",
      "population": 21815,
      "populationProper": 21815
    },
    {
      "city": "Puerto Triunfo",
      "lat": 5.8728,
      "lng": -74.6397,
      "country": "Colombia",
      "iso2": "CO",
      "adminName": "Antioquia",
      "capital": "minor",
      "population": 21745,
      "populationProper": 21745
    },
    {
      "city": "San Jacinto",
      "lat": 9.8311,
      "lng": -75.1219,
      "country": "Colombia",
      "iso2": "CO",
      "adminName": "Bolívar",
      "capital": "minor",
      "population": 21644,
      "populationProper": 21644
    },
    {
      "city": "Nueva Granada",
      "lat": 9.8011,
      "lng": -74.3917,
      "country": "Colombia",
      "iso2": "CO",
      "adminName": "Magdalena",
      "capital": "minor",
      "population": 21612,
      "populationProper": 21612
    },
    {
      "city": "Galeras",
      "lat": 9.1586,
      "lng": -75.0489,
      "country": "Colombia",
      "iso2": "CO",
      "adminName": "Sucre",
      "capital": "minor",
      "population": 21548,
      "populationProper": 21548
    },
    {
      "city": "Villagarzón",
      "lat": 1.0294,
      "lng": -76.6164,
      "country": "Colombia",
      "iso2": "CO",
      "adminName": "Putumayo",
      "capital": "minor",
      "population": 21507,
      "populationProper": 21507
    },
    {
      "city": "San Bernardo",
      "lat": 1.5164,
      "lng": -77.0467,
      "country": "Colombia",
      "iso2": "CO",
      "adminName": "Nariño",
      "capital": "minor",
      "population": 21492,
      "populationProper": 21492
    },
    {
      "city": "El Paujíl",
      "lat": 1.5694,
      "lng": -75.3264,
      "country": "Colombia",
      "iso2": "CO",
      "adminName": "Caquetá",
      "capital": "minor",
      "population": 21462,
      "populationProper": 21462
    },
    {
      "city": "Santa Bárbara",
      "lat": 5.8747,
      "lng": -75.5661,
      "country": "Colombia",
      "iso2": "CO",
      "adminName": "Antioquia",
      "capital": "minor",
      "population": 21413,
      "populationProper": 21413
    },
    {
      "city": "Moniquirá",
      "lat": 5.8744,
      "lng": -73.5717,
      "country": "Colombia",
      "iso2": "CO",
      "adminName": "Boyacá",
      "capital": "minor",
      "population": 21402,
      "populationProper": 21402
    },
    {
      "city": "Almaguer",
      "lat": 1.9131,
      "lng": -76.8561,
      "country": "Colombia",
      "iso2": "CO",
      "adminName": "Cauca",
      "capital": "minor",
      "population": 21374,
      "populationProper": 21374
    },
    {
      "city": "Totoró",
      "lat": 2.5103,
      "lng": -76.4019,
      "country": "Colombia",
      "iso2": "CO",
      "adminName": "Cauca",
      "capital": "minor",
      "population": 21298,
      "populationProper": 21298
    },
    {
      "city": "Aguadas",
      "lat": 5.6092,
      "lng": -75.4564,
      "country": "Colombia",
      "iso2": "CO",
      "adminName": "Caldas",
      "capital": "minor",
      "population": 21237,
      "populationProper": 21237
    },
    {
      "city": "Montecristo",
      "lat": 8.2958,
      "lng": -74.4728,
      "country": "Colombia",
      "iso2": "CO",
      "adminName": "Bolívar",
      "capital": "minor",
      "population": 21229,
      "populationProper": 21229
    },
    {
      "city": "Suaza",
      "lat": 1.975,
      "lng": -75.7956,
      "country": "Colombia",
      "iso2": "CO",
      "adminName": "Huila",
      "capital": "minor",
      "population": 21119,
      "populationProper": 21119
    },
    {
      "city": "Villapinzón",
      "lat": 5.2158,
      "lng": -73.5967,
      "country": "Colombia",
      "iso2": "CO",
      "adminName": "Cundinamarca",
      "capital": "minor",
      "population": 21049,
      "populationProper": 21049
    },
    {
      "city": "Fredonia",
      "lat": 5.9267,
      "lng": -75.6739,
      "country": "Colombia",
      "iso2": "CO",
      "adminName": "Antioquia",
      "capital": "minor",
      "population": 20997,
      "populationProper": 20997
    },
    {
      "city": "El Retén",
      "lat": 10.6106,
      "lng": -74.2683,
      "country": "Colombia",
      "iso2": "CO",
      "adminName": "Magdalena",
      "capital": "minor",
      "population": 20981,
      "populationProper": 20981
    },
    {
      "city": "Bugalagrande",
      "lat": 4.2075,
      "lng": -76.1575,
      "country": "Colombia",
      "iso2": "CO",
      "adminName": "Valle del Cauca",
      "capital": "minor",
      "population": 20970,
      "populationProper": 20970
    },
    {
      "city": "López",
      "lat": 2.8464,
      "lng": -77.2472,
      "country": "Colombia",
      "iso2": "CO",
      "adminName": "Cauca",
      "capital": "minor",
      "population": 20867,
      "populationProper": 20867
    },
    {
      "city": "Sotomayor",
      "lat": 1.4933,
      "lng": -77.5214,
      "country": "Colombia",
      "iso2": "CO",
      "adminName": "Nariño",
      "capital": "minor",
      "population": 20865,
      "populationProper": 20865
    },
    {
      "city": "Ovejas",
      "lat": 9.5258,
      "lng": -75.2272,
      "country": "Colombia",
      "iso2": "CO",
      "adminName": "Sucre",
      "capital": "minor",
      "population": 20846,
      "populationProper": 20846
    },
    {
      "city": "Samacá",
      "lat": 5.4919,
      "lng": -73.4867,
      "country": "Colombia",
      "iso2": "CO",
      "adminName": "Boyacá",
      "capital": "minor",
      "population": 20767,
      "populationProper": 20767
    },
    {
      "city": "Timaná",
      "lat": 1.9499,
      "lng": -75.9139,
      "country": "Colombia",
      "iso2": "CO",
      "adminName": "Huila",
      "capital": "minor",
      "population": 20463,
      "populationProper": 20463
    },
    {
      "city": "San Lorenzo",
      "lat": 1.5039,
      "lng": -77.2178,
      "country": "Colombia",
      "iso2": "CO",
      "adminName": "Nariño",
      "capital": "minor",
      "population": 20403,
      "populationProper": 20403
    },
    {
      "city": "Concordia",
      "lat": 6.0456,
      "lng": -75.9075,
      "country": "Colombia",
      "iso2": "CO",
      "adminName": "Antioquia",
      "capital": "minor",
      "population": 20271,
      "populationProper": 20271
    },
    {
      "city": "Simití",
      "lat": 7.9564,
      "lng": -73.9461,
      "country": "Colombia",
      "iso2": "CO",
      "adminName": "Bolívar",
      "capital": "minor",
      "population": 20271,
      "populationProper": 20271
    },
    {
      "city": "Tenjo",
      "lat": 4.8697,
      "lng": -74.1439,
      "country": "Colombia",
      "iso2": "CO",
      "adminName": "Cundinamarca",
      "capital": "minor",
      "population": 20269,
      "populationProper": 20269
    },
    {
      "city": "Rovira",
      "lat": 4.2392,
      "lng": -75.2403,
      "country": "Colombia",
      "iso2": "CO",
      "adminName": "Tolima",
      "capital": "minor",
      "population": 20255,
      "populationProper": 20255
    },
    {
      "city": "Inírida",
      "lat": 3.8708,
      "lng": -67.9211,
      "country": "Colombia",
      "iso2": "CO",
      "adminName": "Guainía",
      "capital": "admin",
      "population": 19816,
      "populationProper": 19816
    },
    {
      "city": "Urumita",
      "lat": 10.5603,
      "lng": -73.0136,
      "country": "Colombia",
      "iso2": "CO",
      "adminName": "La Guajira",
      "capital": "minor",
      "population": 19629,
      "populationProper": 19629
    },
    {
      "city": "Polonuevo",
      "lat": 10.7772,
      "lng": -74.8528,
      "country": "Colombia",
      "iso2": "CO",
      "adminName": "Atlántico",
      "capital": "minor",
      "population": 19454,
      "populationProper": 19454
    },
    {
      "city": "La Unión",
      "lat": 5.9728,
      "lng": -75.3611,
      "country": "Colombia",
      "iso2": "CO",
      "adminName": "Antioquia",
      "capital": "minor",
      "population": 19119,
      "populationProper": 19119
    },
    {
      "city": "Tadó",
      "lat": 5.2633,
      "lng": -76.56,
      "country": "Colombia",
      "iso2": "CO",
      "adminName": "Chocó",
      "capital": "minor",
      "population": 18906,
      "populationProper": 18906
    },
    {
      "city": "Vélez",
      "lat": 6.0131,
      "lng": -73.6736,
      "country": "Colombia",
      "iso2": "CO",
      "adminName": "Santander",
      "capital": "minor",
      "population": 18808,
      "populationProper": 18808
    },
    {
      "city": "Tocaima",
      "lat": 4.4578,
      "lng": -74.6347,
      "country": "Colombia",
      "iso2": "CO",
      "adminName": "Cundinamarca",
      "capital": "minor",
      "population": 18790,
      "populationProper": 18790
    },
    {
      "city": "Villa de Leyva",
      "lat": 5.6331,
      "lng": -73.5256,
      "country": "Colombia",
      "iso2": "CO",
      "adminName": "Boyacá",
      "capital": "minor",
      "population": 18598,
      "populationProper": 18598
    },
    {
      "city": "Campo de la Cruz",
      "lat": 10.3778,
      "lng": -74.8814,
      "country": "Colombia",
      "iso2": "CO",
      "adminName": "Atlántico",
      "capital": "minor",
      "population": 18354,
      "populationProper": 18354
    },
    {
      "city": "Sabana de Torres",
      "lat": 7.3903,
      "lng": -73.5003,
      "country": "Colombia",
      "iso2": "CO",
      "adminName": "Santander",
      "capital": "minor",
      "population": 17965,
      "populationProper": 17965
    },
    {
      "city": "Pelaya",
      "lat": 8.6892,
      "lng": -73.6653,
      "country": "Colombia",
      "iso2": "CO",
      "adminName": "Cesar",
      "capital": "minor",
      "population": 17910,
      "populationProper": 17910
    },
    {
      "city": "Salgar",
      "lat": 5.9639,
      "lng": -75.9775,
      "country": "Colombia",
      "iso2": "CO",
      "adminName": "Antioquia",
      "capital": "minor",
      "population": 17804,
      "populationProper": 17804
    },
    {
      "city": "La Primavera",
      "lat": 5.4906,
      "lng": -70.4092,
      "country": "Colombia",
      "iso2": "CO",
      "adminName": "Vichada",
      "capital": "minor",
      "population": 17626,
      "populationProper": 17626
    },
    {
      "city": "Guaranda",
      "lat": 8.4672,
      "lng": -74.5367,
      "country": "Colombia",
      "iso2": "CO",
      "adminName": "Sucre",
      "capital": "minor",
      "population": 17422,
      "populationProper": 17422
    },
    {
      "city": "Suesca",
      "lat": 5.1017,
      "lng": -73.7981,
      "country": "Colombia",
      "iso2": "CO",
      "adminName": "Cundinamarca",
      "capital": "minor",
      "population": 17318,
      "populationProper": 17318
    },
    {
      "city": "Betulia",
      "lat": 6.1122,
      "lng": -75.9839,
      "country": "Colombia",
      "iso2": "CO",
      "adminName": "Antioquia",
      "capital": "minor",
      "population": 17317,
      "populationProper": 17317
    },
    {
      "city": "El Rosal",
      "lat": 4.8519,
      "lng": -74.2628,
      "country": "Colombia",
      "iso2": "CO",
      "adminName": "Cundinamarca",
      "capital": "minor",
      "population": 17254,
      "populationProper": 17254
    },
    {
      "city": "Retiro",
      "lat": 6.0597,
      "lng": -75.5039,
      "country": "Colombia",
      "iso2": "CO",
      "adminName": "Antioquia",
      "capital": "minor",
      "population": 16974,
      "populationProper": 16974
    },
    {
      "city": "Puerto Carreño",
      "lat": 6.1889,
      "lng": -67.4858,
      "country": "Colombia",
      "iso2": "CO",
      "adminName": "Vichada",
      "capital": "admin",
      "population": 16763,
      "populationProper": 16763
    },
    {
      "city": "El Piñón",
      "lat": 10.4039,
      "lng": -74.8231,
      "country": "Colombia",
      "iso2": "CO",
      "adminName": "Magdalena",
      "capital": "minor",
      "population": 16752,
      "populationProper": 16752
    },
    {
      "city": "Anorí",
      "lat": 7.0736,
      "lng": -75.1469,
      "country": "Colombia",
      "iso2": "CO",
      "adminName": "Antioquia",
      "capital": "minor",
      "population": 16447,
      "populationProper": 16447
    },
    {
      "city": "Aquitania",
      "lat": 5.5194,
      "lng": -72.8836,
      "country": "Colombia",
      "iso2": "CO",
      "adminName": "Boyacá",
      "capital": "minor",
      "population": 16087,
      "populationProper": 16087
    },
    {
      "city": "Chivolo",
      "lat": 10.0264,
      "lng": -74.6214,
      "country": "Colombia",
      "iso2": "CO",
      "adminName": "Magdalena",
      "capital": "minor",
      "population": 15960,
      "populationProper": 15960
    },
    {
      "city": "Guasca",
      "lat": 4.8658,
      "lng": -73.8772,
      "country": "Colombia",
      "iso2": "CO",
      "adminName": "Cundinamarca",
      "capital": "minor",
      "population": 15727,
      "populationProper": 15727
    },
    {
      "city": "Landázuri",
      "lat": 6.2181,
      "lng": -73.8114,
      "country": "Colombia",
      "iso2": "CO",
      "adminName": "Santander",
      "capital": "minor",
      "population": 15395,
      "populationProper": 15395
    },
    {
      "city": "Támesis",
      "lat": 5.6647,
      "lng": -75.7144,
      "country": "Colombia",
      "iso2": "CO",
      "adminName": "Antioquia",
      "capital": "minor",
      "population": 15218,
      "populationProper": 15218
    },
    {
      "city": "Obando",
      "lat": 4.5761,
      "lng": -75.9731,
      "country": "Colombia",
      "iso2": "CO",
      "adminName": "Valle del Cauca",
      "capital": "minor",
      "population": 14980,
      "populationProper": 14980
    },
    {
      "city": "Condoto",
      "lat": 5.0917,
      "lng": -76.65,
      "country": "Colombia",
      "iso2": "CO",
      "adminName": "Chocó",
      "capital": "minor",
      "population": 14660,
      "populationProper": 14660
    },
    {
      "city": "Sopetrán",
      "lat": 6.5017,
      "lng": -75.7433,
      "country": "Colombia",
      "iso2": "CO",
      "adminName": "Antioquia",
      "capital": "minor",
      "population": 14453,
      "populationProper": 14453
    },
    {
      "city": "Tenerife",
      "lat": 9.8989,
      "lng": -74.8589,
      "country": "Colombia",
      "iso2": "CO",
      "adminName": "Magdalena",
      "capital": "minor",
      "population": 14320,
      "populationProper": 14320
    },
    {
      "city": "Juan de Acosta",
      "lat": 10.8286,
      "lng": -75.035,
      "country": "Colombia",
      "iso2": "CO",
      "adminName": "Atlántico",
      "capital": "minor",
      "population": 14184,
      "populationProper": 14184
    },
    {
      "city": "Titiribí",
      "lat": 6.0625,
      "lng": -75.7936,
      "country": "Colombia",
      "iso2": "CO",
      "adminName": "Antioquia",
      "capital": "minor",
      "population": 14092,
      "populationProper": 14092
    },
    {
      "city": "El Carmen de Atrato",
      "lat": 5.8983,
      "lng": -76.1431,
      "country": "Colombia",
      "iso2": "CO",
      "adminName": "Chocó",
      "capital": "minor",
      "population": 14049,
      "populationProper": 14049
    },
    {
      "city": "Río de Oro",
      "lat": 8.2917,
      "lng": -73.3872,
      "country": "Colombia",
      "iso2": "CO",
      "adminName": "Cesar",
      "capital": "minor",
      "population": 14041,
      "populationProper": 14041
    },
    {
      "city": "Córdoba",
      "lat": 0.8533,
      "lng": -77.5178,
      "country": "Colombia",
      "iso2": "CO",
      "adminName": "Nariño",
      "capital": "minor",
      "population": 14006,
      "populationProper": 14006
    },
    {
      "city": "Guapí",
      "lat": 2.5604,
      "lng": -77.86,
      "country": "Colombia",
      "iso2": "CO",
      "adminName": "Cauca",
      "capital": "minor",
      "population": 13853,
      "populationProper": 13853
    },
    {
      "city": "Jardín",
      "lat": 5.5983,
      "lng": -75.8197,
      "country": "Colombia",
      "iso2": "CO",
      "adminName": "Antioquia",
      "capital": "minor",
      "population": 13748,
      "populationProper": 13748
    },
    {
      "city": "Altos del Rosario",
      "lat": 8.7914,
      "lng": -74.1636,
      "country": "Colombia",
      "iso2": "CO",
      "adminName": "Bolívar",
      "capital": "minor",
      "population": 13669,
      "populationProper": 13669
    },
    {
      "city": "Filandia",
      "lat": 4.6733,
      "lng": -75.6583,
      "country": "Colombia",
      "iso2": "CO",
      "adminName": "Quindío",
      "capital": "minor",
      "population": 13628,
      "populationProper": 13628
    },
    {
      "city": "Manatí",
      "lat": 10.4481,
      "lng": -74.9592,
      "country": "Colombia",
      "iso2": "CO",
      "adminName": "Atlántico",
      "capital": "minor",
      "population": 13456,
      "populationProper": 13456
    },
    {
      "city": "San Jacinto del Cauca",
      "lat": 8.2497,
      "lng": -74.72,
      "country": "Colombia",
      "iso2": "CO",
      "adminName": "Bolívar",
      "capital": "minor",
      "population": 13426,
      "populationProper": 13426
    },
    {
      "city": "Rosas",
      "lat": 2.26,
      "lng": -76.74,
      "country": "Colombia",
      "iso2": "CO",
      "adminName": "Cauca",
      "capital": "minor",
      "population": 13302,
      "populationProper": 13302
    },
    {
      "city": "Anolaima",
      "lat": 4.7633,
      "lng": -74.4647,
      "country": "Colombia",
      "iso2": "CO",
      "adminName": "Cundinamarca",
      "capital": "minor",
      "population": 12911,
      "populationProper": 12911
    },
    {
      "city": "Los Santos",
      "lat": 6.7561,
      "lng": -73.1022,
      "country": "Colombia",
      "iso2": "CO",
      "adminName": "Santander",
      "capital": "minor",
      "population": 12648,
      "populationProper": 12648
    },
    {
      "city": "Santa Bárbara de Pinto",
      "lat": 9.4353,
      "lng": -74.7017,
      "country": "Colombia",
      "iso2": "CO",
      "adminName": "Magdalena",
      "capital": "minor",
      "population": 12610,
      "populationProper": 12610
    },
    {
      "city": "Candelaria",
      "lat": 10.4592,
      "lng": -74.8806,
      "country": "Colombia",
      "iso2": "CO",
      "adminName": "Atlántico",
      "capital": "minor",
      "population": 12576,
      "populationProper": 12576
    },
    {
      "city": "Saboyá",
      "lat": 5.6969,
      "lng": -73.7631,
      "country": "Colombia",
      "iso2": "CO",
      "adminName": "Boyacá",
      "capital": "minor",
      "population": 12372,
      "populationProper": 12372
    },
    {
      "city": "Hatillo de Loba",
      "lat": 8.9556,
      "lng": -74.0769,
      "country": "Colombia",
      "iso2": "CO",
      "adminName": "Bolívar",
      "capital": "minor",
      "population": 12270,
      "populationProper": 12270
    },
    {
      "city": "Córdoba",
      "lat": 9.5,
      "lng": -74.9167,
      "country": "Colombia",
      "iso2": "CO",
      "adminName": "Bolívar",
      "capital": "minor",
      "population": 12266,
      "populationProper": 12266
    },
    {
      "city": "Ebéjico",
      "lat": 6.3264,
      "lng": -75.7661,
      "country": "Colombia",
      "iso2": "CO",
      "adminName": "Antioquia",
      "capital": "minor",
      "population": 12158,
      "populationProper": 12158
    },
    {
      "city": "Caimito",
      "lat": 8.7894,
      "lng": -75.1161,
      "country": "Colombia",
      "iso2": "CO",
      "adminName": "Sucre",
      "capital": "minor",
      "population": 12077,
      "populationProper": 12077
    },
    {
      "city": "Curití",
      "lat": 6.6044,
      "lng": -73.0681,
      "country": "Colombia",
      "iso2": "CO",
      "adminName": "Santander",
      "capital": "minor",
      "population": 12065,
      "populationProper": 12065
    },
    {
      "city": "Oiba",
      "lat": 6.2639,
      "lng": -73.2992,
      "country": "Colombia",
      "iso2": "CO",
      "adminName": "Santander",
      "capital": "minor",
      "population": 12063,
      "populationProper": 12063
    },
    {
      "city": "Santa Lucía",
      "lat": 10.3247,
      "lng": -74.9589,
      "country": "Colombia",
      "iso2": "CO",
      "adminName": "Atlántico",
      "capital": "minor",
      "population": 11947,
      "populationProper": 11947
    },
    {
      "city": "Puente Nacional",
      "lat": 5.8772,
      "lng": -73.6786,
      "country": "Colombia",
      "iso2": "CO",
      "adminName": "Santander",
      "capital": "minor",
      "population": 11718,
      "populationProper": 11718
    },
    {
      "city": "La Unión",
      "lat": 8.8572,
      "lng": -75.2767,
      "country": "Colombia",
      "iso2": "CO",
      "adminName": "Sucre",
      "capital": "minor",
      "population": 11566,
      "populationProper": 11566
    },
    {
      "city": "Cisneros",
      "lat": 6.5383,
      "lng": -75.0886,
      "country": "Colombia",
      "iso2": "CO",
      "adminName": "Antioquia",
      "capital": "minor",
      "population": 11555,
      "populationProper": 11555
    },
    {
      "city": "Guayabal",
      "lat": 5.0306,
      "lng": -74.8844,
      "country": "Colombia",
      "iso2": "CO",
      "adminName": "Tolima",
      "capital": "minor",
      "population": 11490,
      "populationProper": 11490
    },
    {
      "city": "Talaigua Nuevo",
      "lat": 9.3028,
      "lng": -74.5678,
      "country": "Colombia",
      "iso2": "CO",
      "adminName": "Bolívar",
      "capital": "minor",
      "population": 11350,
      "populationProper": 11350
    },
    {
      "city": "Coveñas",
      "lat": 9.4014,
      "lng": -75.68,
      "country": "Colombia",
      "iso2": "CO",
      "adminName": "Sucre",
      "capital": "minor",
      "population": 11270,
      "populationProper": 11270
    },
    {
      "city": "Bojacá",
      "lat": 4.7336,
      "lng": -74.3422,
      "country": "Colombia",
      "iso2": "CO",
      "adminName": "Cundinamarca",
      "capital": "minor",
      "population": 11254,
      "populationProper": 11254
    },
    {
      "city": "El Playón",
      "lat": 7.4703,
      "lng": -73.2033,
      "country": "Colombia",
      "iso2": "CO",
      "adminName": "Santander",
      "capital": "minor",
      "population": 11252,
      "populationProper": 11252
    },